$GPRMC,230129.844,A,4728.5907,N,1902.1108,E,01.56,110.51,230417,,*05
$GPGGA,230129.844,4728.5907,N,1902.1108,E,1,,,,,,,,*71
$GPRMC,230129.874,A,4728.5904,N,1902.1121,E,03.18,110.51,230417,,*06
$GPGGA,230129.874,4728.5904,N,1902.1121,E,1,,,,,,,,*7A
$GPRMC,230130.165,A,4728.5899,N,1902.1142,E,05.63,110.51,230417,,*0D
$GPGGA,230130.165,4728.5899,N,1902.1142,E,1,,,,,,,,*7B
$GPRMC,230130.465,A,4728.5891,N,1902.1175,E,08.36,110.51,230417,,*09
$GPGGA,230130.465,4728.5891,N,1902.1175,E,1,,,,,,,,*72
$GPRMC,230146.534,A,4728.5881,N,1902.1217,E,11.01,110.51,230417,,*07
$GPGGA,230146.534,4728.5881,N,1902.1217,E,1,,,,,,,,*70
$GPRMC,230146.835,A,4728.5869,N,1902.1271,E,13.86,110.51,230417,,*00
$GPGGA,230146.835,4728.5869,N,1902.1271,E,1,,,,,,,,*7A
$GPRMC,230147.134,A,4728.5854,N,1902.1335,E,16.48,110.51,230417,,*01
$GPGGA,230147.134,4728.5854,N,1902.1335,E,1,,,,,,,,*7C
$GPRMC,230147.433,A,4728.5837,N,1902.1405,E,18.19,110.51,230417,,*08
$GPGGA,230147.433,4728.5837,N,1902.1405,E,1,,,,,,,,*7F
$GPRMC,230147.733,A,4728.5819,N,1902.1483,E,20.28,110.51,230417,,*00
$GPGGA,230147.733,4728.5819,N,1902.1483,E,1,,,,,,,,*7E
$GPRMC,230148.33,A,4728.5799,N,1902.1570,E,22.42,110.51,230417,,*3C
$GPGGA,230148.33,4728.5799,N,1902.1570,E,1,,,,,,,,*4C
$GPRMC,230148.333,A,4728.5777,N,1902.1664,E,24.47,110.51,230417,,*0A
$GPGGA,230148.333,4728.5777,N,1902.1664,E,1,,,,,,,,*79
$GPRMC,230148.634,A,4728.5754,N,1902.1764,E,25.61,110.50,230417,,*0C
$GPGGA,230148.634,4728.5754,N,1902.1764,E,1,,,,,,,,*7B
$GPRMC,230148.933,A,4728.5730,N,1902.1863,E,25.59,110.50,230417,,*05
$GPGGA,230148.933,4728.5730,N,1902.1863,E,1,,,,,,,,*79
$GPRMC,230149.233,A,4728.5706,N,1902.1965,E,26.33,110.50,230417,,*02
$GPGGA,230149.233,4728.5706,N,1902.1965,E,1,,,,,,,,*71
$GPRMC,230149.533,A,4728.5683,N,1902.2065,E,26.05,110.50,230417,,*06
$GPGGA,230149.533,4728.5683,N,1902.2065,E,1,,,,,,,,*70
$GPRMC,230149.833,A,4728.5660,N,1902.2165,E,25.65,110.50,230417,,*02
$GPGGA,230149.833,4728.5660,N,1902.2165,E,1,,,,,,,,*71
$GPRMC,230150.133,A,4728.5636,N,1902.2265,E,25.91,110.55,230417,,*0D
$GPGGA,230150.133,4728.5636,N,1902.2265,E,1,,,,,,,,*70
$GPRMC,230150.433,A,4728.5612,N,1902.2367,E,26.45,110.55,230417,,*07
$GPGGA,230150.433,4728.5612,N,1902.2367,E,1,,,,,,,,*70
$GPRMC,230150.733,A,4728.5605,N,1902.2477,E,26.05,110.51,230417,,*04
$GPGGA,230150.733,4728.5605,N,1902.2477,E,1,,,,,,,,*73
$GPRMC,230151.33,A,4728.5581,N,1902.2580,E,26.77,110.51,230417,,*31
$GPGGA,230151.33,4728.5581,N,1902.2580,E,1,,,,,,,,*43
$GPRMC,230151.333,A,4728.5557,N,1902.2681,E,25.91,110.51,230417,,*00
$GPGGA,230151.333,4728.5557,N,1902.2681,E,1,,,,,,,,*79
$GPRMC,230151.633,A,4728.5534,N,1902.2780,E,25.70,110.51,230417,,*0F
$GPGGA,230151.633,4728.5534,N,1902.2780,E,1,,,,,,,,*79
$GPRMC,230151.933,A,4728.5511,N,1902.2879,E,25.60,110.51,230417,,*0F
$GPGGA,230151.933,4728.5511,N,1902.2879,E,1,,,,,,,,*78
$GPRMC,230152.233,A,4728.5486,N,1902.2984,E,26.96,110.51,230417,,*01
$GPGGA,230152.233,4728.5486,N,1902.2984,E,1,,,,,,,,*7C
$GPRMC,230152.533,A,4728.5463,N,1902.3088,E,26.99,109.89,230417,,*0B
$GPGGA,230152.533,4728.5463,N,1902.3088,E,1,,,,,,,,*74
$GPRMC,230152.833,A,4728.5440,N,1902.3192,E,26.58,107.76,230417,,*0E
$GPGGA,230152.833,4728.5440,N,1902.3192,E,1,,,,,,,,*72
$GPRMC,230153.133,A,4728.5425,N,1902.3296,E,26.84,109.80,230417,,*04
$GPGGA,230153.133,4728.5425,N,1902.3296,E,1,,,,,,,,*7E
$GPRMC,230153.433,A,4728.5402,N,1902.3399,E,26.42,109.80,230417,,*00
$GPGGA,230153.433,4728.5402,N,1902.3399,E,1,,,,,,,,*70
$GPRMC,230153.733,A,4728.5379,N,1902.3502,E,26.56,109.80,230417,,*09
$GPGGA,230153.733,4728.5379,N,1902.3502,E,1,,,,,,,,*7C
$GPRMC,230154.32,A,4728.5356,N,1902.3602,E,25.82,109.80,230417,,*3C
$GPGGA,230154.32,4728.5356,N,1902.3602,E,1,,,,,,,,*43
$GPRMC,230154.333,A,4728.5334,N,1902.3703,E,26.04,109.82,230417,,*05
$GPGGA,230154.333,4728.5334,N,1902.3703,E,1,,,,,,,,*75
$GPRMC,230154.633,A,4728.5311,N,1902.3805,E,26.09,109.78,230417,,*06
$GPGGA,230154.633,4728.5311,N,1902.3805,E,1,,,,,,,,*7E
$GPRMC,230154.932,A,4728.5288,N,1902.3905,E,25.82,109.82,230417,,*0D
$GPGGA,230154.932,4728.5288,N,1902.3905,E,1,,,,,,,,*70
$GPRMC,230155.233,A,4728.5266,N,1902.4005,E,25.68,109.82,230417,,*0C
$GPGGA,230155.233,4728.5266,N,1902.4005,E,1,,,,,,,,*75
$GPRMC,230155.533,A,4728.5243,N,1902.4106,E,25.73,109.81,230417,,*07
$GPGGA,230155.533,4728.5243,N,1902.4106,E,1,,,,,,,,*77
$GPRMC,230155.834,A,4728.5219,N,1902.4215,E,26.19,109.69,230417,,*0A
$GPGGA,230155.834,4728.5219,N,1902.4215,E,1,,,,,,,,*73
$GPRMC,230156.134,A,4728.5215,N,1902.4308,E,22.38,86.54,230417,,*3E
$GPGGA,230156.134,4728.5215,N,1902.4308,E,1,,,,,,,,*78
$GPRMC,230156.437,A,4728.5216,N,1902.4318,E,14.52,83.48,230417,,*3B
$GPGGA,230156.437,4728.5216,N,1902.4318,E,1,,,,,,,,*7C
$GPRMC,230156.736,A,4728.5220,N,1902.4353,E,16.38,81.87,230417,,*3C
$GPGGA,230156.736,4728.5220,N,1902.4353,E,1,,,,,,,,*74
$GPRMC,230157.36,A,4728.5231,N,1902.4430,E,19.22,77.91,230417,,*02
$GPGGA,230157.36,4728.5231,N,1902.4430,E,1,,,,,,,,*40
$GPRMC,230157.335,A,4728.5250,N,1902.4513,E,21.20,71.80,230417,,*3A
$GPGGA,230157.335,4728.5250,N,1902.4513,E,1,,,,,,,,*77
$GPRMC,230157.636,A,4728.5276,N,1902.4600,E,22.94,65.43,230417,,*3F
$GPGGA,230157.636,4728.5276,N,1902.4600,E,1,,,,,,,,*74
$GPRMC,230157.936,A,4728.5308,N,1902.4691,E,24.81,62.67,230417,,*33
$GPGGA,230157.936,4728.5308,N,1902.4691,E,1,,,,,,,,*7B
$GPRMC,230158.237,A,4728.5342,N,1902.4783,E,25.64,62.67,230417,,*30
$GPGGA,230158.237,4728.5342,N,1902.4783,E,1,,,,,,,,*72
$GPRMC,230158.537,A,4728.5377,N,1902.4877,E,26.32,63.33,230417,,*35
$GPGGA,230158.537,4728.5377,N,1902.4877,E,1,,,,,,,,*77
$GPRMC,230158.836,A,4728.5411,N,1902.4973,E,26.47,63.39,230417,,*33
$GPGGA,230158.836,4728.5411,N,1902.4973,E,1,,,,,,,,*79
$GPRMC,230159.137,A,4728.5446,N,1902.5069,E,26.53,63.39,230417,,*3E
$GPGGA,230159.137,4728.5446,N,1902.5069,E,1,,,,,,,,*71
$GPRMC,230159.437,A,4728.5480,N,1902.5163,E,25.99,63.39,230417,,*3F
$GPGGA,230159.437,4728.5480,N,1902.5163,E,1,,,,,,,,*75
$GPRMC,230159.736,A,4728.5514,N,1902.5258,E,26.36,63.39,230417,,*3C
$GPGGA,230159.736,4728.5514,N,1902.5258,E,1,,,,,,,,*70
$GPRMC,230200.37,A,4728.5549,N,1902.5355,E,26.81,63.39,230417,,*0D
$GPGGA,230200.37,4728.5549,N,1902.5355,E,1,,,,,,,,*4D
$GPRMC,230200.337,A,4728.5583,N,1902.5449,E,25.94,63.39,230417,,*35
$GPGGA,230200.337,4728.5583,N,1902.5449,E,1,,,,,,,,*72
$GPRMC,230200.636,A,4728.5617,N,1902.5542,E,25.79,63.39,230417,,*36
$GPGGA,230200.636,4728.5617,N,1902.5542,E,1,,,,,,,,*72
$GPRMC,230200.937,A,4728.5650,N,1902.5634,E,25.55,63.39,230417,,*37
$GPGGA,230200.937,4728.5650,N,1902.5634,E,1,,,,,,,,*7D
$GPRMC,230201.237,A,4728.5685,N,1902.5730,E,26.54,63.39,230417,,*32
$GPGGA,230201.237,4728.5685,N,1902.5730,E,1,,,,,,,,*7A
$GPRMC,230201.536,A,4728.5719,N,1902.5824,E,26.01,63.40,230417,,*34
$GPGGA,230201.536,4728.5719,N,1902.5824,E,1,,,,,,,,*72
$GPRMC,230201.837,A,4728.5753,N,1902.5918,E,25.93,63.25,230417,,*33
$GPGGA,230201.837,4728.5753,N,1902.5918,E,1,,,,,,,,*7E
$GPRMC,230202.137,A,4728.5787,N,1902.6011,E,25.85,63.06,230417,,*35
$GPGGA,230202.137,4728.5787,N,1902.6011,E,1,,,,,,,,*7E
$GPRMC,230202.437,A,4728.5821,N,1902.6105,E,26.13,64.27,230417,,*3F
$GPGGA,230202.437,4728.5821,N,1902.6105,E,1,,,,,,,,*7C
$GPRMC,230202.737,A,4728.5854,N,1902.6203,E,26.75,64.73,230417,,*3A
$GPGGA,230202.737,4728.5854,N,1902.6203,E,1,,,,,,,,*78
$GPRMC,230203.37,A,4728.5887,N,1902.6300,E,26.47,64.71,230417,,*03
$GPGGA,230203.37,4728.5887,N,1902.6300,E,1,,,,,,,,*42
$GPRMC,230203.337,A,4728.5921,N,1902.6399,E,26.96,64.71,230417,,*31
$GPGGA,230203.337,4728.5921,N,1902.6399,E,1,,,,,,,,*7C
$GPRMC,230203.636,A,4728.5953,N,1902.6493,E,25.84,64.71,230417,,*3D
$GPGGA,230203.636,4728.5953,N,1902.6493,E,1,,,,,,,,*70
$GPRMC,230204.45,A,4728.5986,N,1902.6588,E,25.83,64.71,230417,,*0C
$GPGGA,230204.45,4728.5986,N,1902.6588,E,1,,,,,,,,*46
$GPRMC,230204.236,A,4728.6018,N,1902.6683,E,25.98,64.71,230417,,*35
$GPGGA,230204.236,4728.6018,N,1902.6683,E,1,,,,,,,,*75
$GPRMC,230204.537,A,4728.6050,N,1902.6777,E,25.68,64.71,230417,,*3A
$GPGGA,230204.537,4728.6050,N,1902.6777,E,1,,,,,,,,*75
$GPRMC,230204.837,A,4728.6082,N,1902.6871,E,25.80,64.71,230417,,*37
$GPGGA,230204.837,4728.6082,N,1902.6871,E,1,,,,,,,,*7E
$GPRMC,230205.138,A,4728.6115,N,1902.6970,E,26.96,65.54,230417,,*3D
$GPGGA,230205.138,4728.6115,N,1902.6970,E,1,,,,,,,,*76
$GPRMC,230205.438,A,4728.6146,N,1902.7065,E,25.69,65.76,230417,,*31
$GPGGA,230205.438,4728.6146,N,1902.7065,E,1,,,,,,,,*79
$GPRMC,230205.737,A,4728.6178,N,1902.7162,E,26.28,65.76,230417,,*30
$GPGGA,230205.737,4728.6178,N,1902.7162,E,1,,,,,,,,*7E
$GPRMC,230206.38,A,4728.6209,N,1902.7257,E,25.79,65.76,230417,,*0C
$GPGGA,230206.38,4728.6209,N,1902.7257,E,1,,,,,,,,*45
$GPRMC,230206.338,A,4728.6240,N,1902.7354,E,26.23,65.76,230417,,*3C
$GPGGA,230206.338,4728.6240,N,1902.7354,E,1,,,,,,,,*79
$GPRMC,230206.637,A,4728.6271,N,1902.7448,E,25.67,65.76,230417,,*3D
$GPGGA,230206.637,4728.6271,N,1902.7448,E,1,,,,,,,,*7B
$GPRMC,230206.937,A,4728.6299,N,1902.7533,E,22.98,65.76,230417,,*3E
$GPGGA,230206.937,4728.6299,N,1902.7533,E,1,,,,,,,,*7F
$GPRMC,230207.238,A,4728.6316,N,1902.7586,E,14.23,65.76,230417,,*36
$GPGGA,230207.238,4728.6316,N,1902.7586,E,1,,,,,,,,*72
$GPRMC,230207.538,A,4728.6326,N,1902.7615,E,08.02,65.76,230417,,*35
$GPGGA,230207.538,4728.6326,N,1902.7615,E,1,,,,,,,,*7F
$GPRMC,230207.838,A,4728.6326,N,1902.7616,E,00.05,65.76,230417,,*34
$GPGGA,230207.838,4728.6326,N,1902.7616,E,1,,,,,,,,*71
$GPRMC,230208.137,A,4728.6326,N,1902.7616,E,00.01,65.76,230417,,*39
$GPGGA,230208.137,4728.6326,N,1902.7616,E,1,,,,,,,,*78
$GPRMC,230208.437,A,4728.6326,N,1902.7616,E,00.01,65.76,230417,,*3C
$GPGGA,230208.437,4728.6326,N,1902.7616,E,1,,,,,,,,*7D
$GPRMC,230208.738,A,4728.6326,N,1902.7616,E,00.00,65.76,230417,,*31
$GPGGA,230208.738,4728.6326,N,1902.7616,E,1,,,,,,,,*71
$GPRMC,230209.38,A,4728.6326,N,1902.7616,E,00.00,65.76,230417,,*07
$GPGGA,230209.38,4728.6326,N,1902.7616,E,1,,,,,,,,*47
$GPRMC,230209.338,A,4728.6326,N,1902.7616,E,00.00,65.76,230417,,*34
$GPGGA,230209.338,4728.6326,N,1902.7616,E,1,,,,,,,,*74
$GPRMC,230209.638,A,4728.6326,N,1902.7616,E,00.00,65.76,230417,,*31
$GPGGA,230209.638,4728.6326,N,1902.7616,E,1,,,,,,,,*71
$GPRMC,230209.939,A,4728.6326,N,1902.7616,E,00.00,65.76,230417,,*3F
$GPGGA,230209.939,4728.6326,N,1902.7616,E,1,,,,,,,,*7F
$GPRMC,230210.238,A,4728.6326,N,1902.7616,E,00.00,65.76,230417,,*3D
$GPGGA,230210.238,4728.6326,N,1902.7616,E,1,,,,,,,,*7D
$GPRMC,230210.539,A,4728.6326,N,1902.7616,E,00.00,65.76,230417,,*3B
$GPGGA,230210.539,4728.6326,N,1902.7616,E,1,,,,,,,,*7B
$GPRMC,230210.838,A,4728.6326,N,1902.7616,E,00.00,65.76,230417,,*37
$GPGGA,230210.838,4728.6326,N,1902.7616,E,1,,,,,,,,*77
$GPRMC,230211.139,A,4728.6326,N,1902.7616,E,00.00,65.76,230417,,*3E
$GPGGA,230211.139,4728.6326,N,1902.7616,E,1,,,,,,,,*7E
$GPRMC,230211.439,A,4728.6326,N,1902.7616,E,00.00,65.76,230417,,*3B
$GPGGA,230211.439,4728.6326,N,1902.7616,E,1,,,,,,,,*7B
$GPRMC,230211.740,A,4728.6326,N,1902.7616,E,00.00,65.76,230417,,*36
$GPGGA,230211.740,4728.6326,N,1902.7616,E,1,,,,,,,,*76
$GPRMC,230212.39,A,4728.6329,N,1902.7624,E,02.31,65.75,230417,,*01
$GPGGA,230212.39,4728.6329,N,1902.7624,E,1,,,,,,,,*42
$GPRMC,230212.340,A,4728.6335,N,1902.7642,E,04.85,65.65,230417,,*39
$GPGGA,230212.340,4728.6335,N,1902.7642,E,1,,,,,,,,*72
$GPRMC,230212.639,A,4728.6343,N,1902.7667,E,06.83,65.55,230417,,*33
$GPGGA,230212.639,4728.6343,N,1902.7667,E,1,,,,,,,,*7F
$GPRMC,230212.940,A,4728.6354,N,1902.7701,E,09.07,65.45,230417,,*37
$GPGGA,230212.940,4728.6354,N,1902.7701,E,1,,,,,,,,*79
$GPRMC,230213.240,A,4728.6367,N,1902.7741,E,10.88,65.58,230417,,*3A
$GPGGA,230213.240,4728.6367,N,1902.7741,E,1,,,,,,,,*77
$GPRMC,230213.540,A,4728.6382,N,1902.7789,E,13.12,66.71,230417,,*3A
$GPGGA,230213.540,4728.6382,N,1902.7789,E,1,,,,,,,,*7F
$GPRMC,230213.839,A,4728.6400,N,1902.7846,E,15.22,67.10,230417,,*3B
$GPGGA,230213.839,4728.6400,N,1902.7846,E,1,,,,,,,,*7D
$GPRMC,230214.140,A,4728.6419,N,1902.7910,E,17.11,67.10,230417,,*33
$GPGGA,230214.140,4728.6419,N,1902.7910,E,1,,,,,,,,*77
$GPRMC,230214.440,A,4728.6441,N,1902.7981,E,19.01,67.10,230417,,*3C
$GPGGA,230214.440,4728.6441,N,1902.7981,E,1,,,,,,,,*77
$GPRMC,230214.740,A,4728.6466,N,1902.8062,E,21.67,67.10,230417,,*3A
$GPGGA,230214.740,4728.6466,N,1902.8062,E,1,,,,,,,,*7A
$GPRMC,230215.40,A,4728.6492,N,1902.8148,E,23.25,67.10,230417,,*0A
$GPGGA,230215.40,4728.6492,N,1902.8148,E,1,,,,,,,,*4E
$GPRMC,230215.340,A,4728.6520,N,1902.8236,E,23.28,65.91,230417,,*3D
$GPGGA,230215.340,4728.6520,N,1902.8236,E,1,,,,,,,,*7F
$GPRMC,230215.639,A,4728.6539,N,1902.8293,E,15.66,64.67,230417,,*36
$GPGGA,230215.639,4728.6539,N,1902.8293,E,1,,,,,,,,*73
$GPRMC,230215.940,A,4728.6555,N,1902.8339,E,12.70,64.70,230417,,*3A
$GPGGA,230215.940,4728.6555,N,1902.8339,E,1,,,,,,,,*79
$GPRMC,230216.241,A,4728.6567,N,1902.8375,E,09.68,64.66,230417,,*3E
$GPGGA,230216.241,4728.6567,N,1902.8375,E,1,,,,,,,,*79
$GPRMC,230216.541,A,4728.6579,N,1902.8408,E,09.18,63.96,230417,,*34
$GPGGA,230216.541,4728.6579,N,1902.8408,E,1,,,,,,,,*7C
$GPRMC,230216.840,A,4728.6594,N,1902.8450,E,11.53,63.06,230417,,*39
$GPGGA,230216.840,4728.6594,N,1902.8450,E,1,,,,,,,,*7E
$GPRMC,230217.141,A,4728.6612,N,1902.8497,E,13.10,63.06,230417,,*33
$GPGGA,230217.141,4728.6612,N,1902.8497,E,1,,,,,,,,*71
$GPRMC,230217.441,A,4728.6632,N,1902.8553,E,15.58,63.07,230417,,*36
$GPGGA,230217.441,4728.6632,N,1902.8553,E,1,,,,,,,,*7F
$GPRMC,230217.740,A,4728.6655,N,1902.8617,E,17.60,63.07,230417,,*3F
$GPGGA,230217.740,4728.6655,N,1902.8617,E,1,,,,,,,,*7F
$GPRMC,230218.41,A,4728.6682,N,1902.8691,E,20.51,63.05,230417,,*06
$GPGGA,230218.41,4728.6682,N,1902.8691,E,1,,,,,,,,*42
