$GPRMC,001842.667,A,4728.5907,N,1902.1108,E,01.56,110.51,050417,,*0A
$GPGGA,001842.667,4728.5907,N,1902.1108,E,1,,,,,,,,*7A
$GPRMC,001842.697,A,4728.5904,N,1902.1121,E,03.18,110.51,050417,,*05
$GPGGA,001842.697,4728.5904,N,1902.1121,E,1,,,,,,,,*7D
$GPRMC,001842.838,A,4728.5899,N,1902.1142,E,05.63,110.51,050417,,*04
$GPGGA,001842.838,4728.5899,N,1902.1142,E,1,,,,,,,,*76
$GPRMC,001842.988,A,4728.5891,N,1902.1175,E,08.36,110.51,050417,,*0F
$GPGGA,001842.988,4728.5891,N,1902.1175,E,1,,,,,,,,*70
$GPRMC,001843.138,A,4728.5881,N,1902.1217,E,11.01,110.51,050417,,*07
$GPGGA,001843.138,4728.5881,N,1902.1217,E,1,,,,,,,,*74
$GPRMC,001843.288,A,4728.5869,N,1902.1271,E,13.86,110.51,050417,,*04
$GPGGA,001843.288,4728.5869,N,1902.1271,E,1,,,,,,,,*7A
$GPRMC,001843.437,A,4728.5854,N,1902.1335,E,16.48,110.51,050417,,*0E
$GPGGA,001843.437,4728.5854,N,1902.1335,E,1,,,,,,,,*77
$GPRMC,001843.587,A,4728.5837,N,1902.1405,E,18.19,110.51,050417,,*0F
$GPGGA,001843.587,4728.5837,N,1902.1405,E,1,,,,,,,,*7C
$GPRMC,001843.739,A,4728.5819,N,1902.1483,E,20.28,110.51,050417,,*03
$GPGGA,001843.739,4728.5819,N,1902.1483,E,1,,,,,,,,*79
$GPRMC,001843.888,A,4728.5799,N,1902.1570,E,22.42,110.51,050417,,*02
$GPGGA,001843.888,4728.5799,N,1902.1570,E,1,,,,,,,,*76
$GPRMC,001844.38,A,4728.5777,N,1902.1664,E,24.47,110.51,050417,,*33
$GPGGA,001844.38,4728.5777,N,1902.1664,E,1,,,,,,,,*44
$GPRMC,001844.187,A,4728.5753,N,1902.1764,E,25.61,110.51,050417,,*04
$GPGGA,001844.187,4728.5753,N,1902.1764,E,1,,,,,,,,*76
$GPRMC,001844.338,A,4728.5730,N,1902.1863,E,25.59,110.51,050417,,*04
$GPGGA,001844.338,4728.5730,N,1902.1863,E,1,,,,,,,,*7D
$GPRMC,001844.487,A,4728.5706,N,1902.1965,E,26.33,110.51,050417,,*0A
$GPGGA,001844.487,4728.5706,N,1902.1965,E,1,,,,,,,,*7C
$GPRMC,001844.638,A,4728.5683,N,1902.2065,E,26.05,110.51,050417,,*0F
$GPGGA,001844.638,4728.5683,N,1902.2065,E,1,,,,,,,,*7C
$GPRMC,001844.787,A,4728.5660,N,1902.2165,E,25.65,110.51,050417,,*03
$GPGGA,001844.787,4728.5660,N,1902.2165,E,1,,,,,,,,*75
$GPRMC,001844.937,A,4728.5636,N,1902.2265,E,25.91,110.52,050417,,*0E
$GPGGA,001844.937,4728.5636,N,1902.2265,E,1,,,,,,,,*70
$GPRMC,001845.88,A,4728.5612,N,1902.2367,E,26.45,110.51,050417,,*3E
$GPGGA,001845.88,4728.5612,N,1902.2367,E,1,,,,,,,,*49
$GPRMC,001845.238,A,4728.5605,N,1902.2477,E,26.05,110.51,050417,,*03
$GPGGA,001845.238,4728.5605,N,1902.2477,E,1,,,,,,,,*70
$GPRMC,001845.388,A,4728.5581,N,1902.2580,E,26.77,110.51,050417,,*0A
$GPGGA,001845.388,4728.5581,N,1902.2580,E,1,,,,,,,,*7C
$GPRMC,001845.538,A,4728.5557,N,1902.2681,E,25.91,110.51,050417,,*05
$GPGGA,001845.538,4728.5557,N,1902.2681,E,1,,,,,,,,*78
$GPRMC,001845.689,A,4728.5534,N,1902.2780,E,25.70,110.51,050417,,*06
$GPGGA,001845.689,4728.5534,N,1902.2780,E,1,,,,,,,,*74
$GPRMC,001845.839,A,4728.5511,N,1902.2879,E,25.60,110.51,050417,,*0C
$GPGGA,001845.839,4728.5511,N,1902.2879,E,1,,,,,,,,*7F
$GPRMC,001845.988,A,4728.5487,N,1902.2984,E,26.96,110.51,050417,,*00
$GPGGA,001845.988,4728.5487,N,1902.2984,E,1,,,,,,,,*79
$GPRMC,001846.139,A,4728.5463,N,1902.3088,E,26.99,109.89,050417,,*0D
$GPGGA,001846.139,4728.5463,N,1902.3088,E,1,,,,,,,,*76
$GPRMC,001846.290,A,4728.5440,N,1902.3192,E,26.58,107.73,050417,,*00
$GPGGA,001846.290,4728.5440,N,1902.3192,E,1,,,,,,,,*7D
$GPRMC,001846.440,A,4728.5425,N,1902.3296,E,26.84,109.81,050417,,*0D
$GPGGA,001846.440,4728.5425,N,1902.3296,E,1,,,,,,,,*72
$GPRMC,001846.590,A,4728.5402,N,1902.3399,E,26.42,109.81,050417,,*00
$GPGGA,001846.590,4728.5402,N,1902.3399,E,1,,,,,,,,*75
$GPRMC,001846.741,A,4728.5379,N,1902.3502,E,26.56,109.81,050417,,*04
$GPGGA,001846.741,4728.5379,N,1902.3502,E,1,,,,,,,,*74
$GPRMC,001846.891,A,4728.5356,N,1902.3602,E,25.82,109.81,050417,,*02
$GPGGA,001846.891,4728.5356,N,1902.3602,E,1,,,,,,,,*78
$GPRMC,001847.41,A,4728.5333,N,1902.3704,E,26.04,109.81,050417,,*3F
$GPGGA,001847.41,4728.5333,N,1902.3704,E,1,,,,,,,,*48
$GPRMC,001847.190,A,4728.5311,N,1902.3805,E,26.09,109.78,050417,,*07
$GPGGA,001847.190,4728.5311,N,1902.3805,E,1,,,,,,,,*7B
$GPRMC,001847.341,A,4728.5288,N,1902.3905,E,25.82,109.83,050417,,*0D
$GPGGA,001847.341,4728.5288,N,1902.3905,E,1,,,,,,,,*75
$GPRMC,001847.491,A,4728.5266,N,1902.4005,E,25.68,109.83,050417,,*0D
$GPGGA,001847.491,4728.5266,N,1902.4005,E,1,,,,,,,,*71
$GPRMC,001847.641,A,4728.5243,N,1902.4106,E,25.73,109.79,050417,,*08
$GPGGA,001847.641,4728.5243,N,1902.4106,E,1,,,,,,,,*7B
$GPRMC,001847.791,A,4728.5219,N,1902.4215,E,26.19,109.66,050417,,*0B
$GPGGA,001847.791,4728.5219,N,1902.4215,E,1,,,,,,,,*79
$GPRMC,001847.940,A,4728.5215,N,1902.4308,E,22.36,86.41,050417,,*32
$GPGGA,001847.940,4728.5215,N,1902.4308,E,1,,,,,,,,*7A
$GPRMC,001848.91,A,4728.5216,N,1902.4318,E,14.50,83.83,050417,,*04
$GPGGA,001848.91,4728.5216,N,1902.4318,E,1,,,,,,,,*42
$GPRMC,001848.240,A,4728.5220,N,1902.4353,E,16.36,81.87,050417,,*34
$GPGGA,001848.240,4728.5220,N,1902.4353,E,1,,,,,,,,*76
$GPRMC,001848.391,A,4728.5231,N,1902.4430,E,19.20,77.98,050417,,*34
$GPGGA,001848.391,4728.5231,N,1902.4430,E,1,,,,,,,,*79
$GPRMC,001848.541,A,4728.5250,N,1902.4513,E,21.18,71.79,050417,,*31
$GPGGA,001848.541,4728.5250,N,1902.4513,E,1,,,,,,,,*75
$GPRMC,001848.691,A,4728.5276,N,1902.4600,E,22.92,65.45,050417,,*31
$GPGGA,001848.691,4728.5276,N,1902.4600,E,1,,,,,,,,*7E
$GPRMC,001848.841,A,4728.5308,N,1902.4691,E,24.79,62.68,050417,,*39
$GPGGA,001848.841,4728.5308,N,1902.4691,E,1,,,,,,,,*7D
$GPRMC,001848.990,A,4728.5342,N,1902.4783,E,25.64,62.68,050417,,*35
$GPGGA,001848.990,4728.5342,N,1902.4783,E,1,,,,,,,,*7C
$GPRMC,001849.141,A,4728.5377,N,1902.4877,E,26.32,63.32,050417,,*3C
$GPGGA,001849.141,4728.5377,N,1902.4877,E,1,,,,,,,,*7B
$GPRMC,001849.291,A,4728.5411,N,1902.4973,E,26.47,63.39,050417,,*39
$GPGGA,001849.291,4728.5411,N,1902.4973,E,1,,,,,,,,*77
$GPRMC,001849.441,A,4728.5446,N,1902.5069,E,26.53,63.39,050417,,*36
$GPGGA,001849.441,4728.5446,N,1902.5069,E,1,,,,,,,,*7D
$GPRMC,001849.591,A,4728.5480,N,1902.5163,E,25.99,63.39,050417,,*3E
$GPGGA,001849.591,4728.5480,N,1902.5163,E,1,,,,,,,,*70
$GPRMC,001849.740,A,4728.5514,N,1902.5258,E,26.36,63.39,050417,,*31
$GPGGA,001849.740,4728.5514,N,1902.5258,E,1,,,,,,,,*79
$GPRMC,001849.890,A,4728.5549,N,1902.5355,E,26.81,63.39,050417,,*3B
$GPGGA,001849.890,4728.5549,N,1902.5355,E,1,,,,,,,,*7F
$GPRMC,001850.41,A,4728.5583,N,1902.5449,E,25.94,63.39,050417,,*0C
$GPGGA,001850.41,4728.5583,N,1902.5449,E,1,,,,,,,,*4F
$GPRMC,001850.192,A,4728.5617,N,1902.5542,E,25.79,63.39,050417,,*34
$GPGGA,001850.192,4728.5617,N,1902.5542,E,1,,,,,,,,*74
$GPRMC,001850.342,A,4728.5650,N,1902.5634,E,25.55,63.39,050417,,*34
$GPGGA,001850.342,4728.5650,N,1902.5634,E,1,,,,,,,,*7A
$GPRMC,001850.492,A,4728.5685,N,1902.5730,E,26.54,63.39,050417,,*31
$GPGGA,001850.492,4728.5685,N,1902.5730,E,1,,,,,,,,*7D
$GPRMC,001850.642,A,4728.5719,N,1902.5824,E,26.01,63.41,050417,,*3F
$GPGGA,001850.642,4728.5719,N,1902.5824,E,1,,,,,,,,*7C
$GPRMC,001850.793,A,4728.5753,N,1902.5918,E,25.93,63.26,050417,,*3B
$GPGGA,001850.793,4728.5753,N,1902.5918,E,1,,,,,,,,*71
$GPRMC,001850.944,A,4728.5787,N,1902.6011,E,25.85,63.04,050417,,*32
$GPGGA,001850.944,4728.5787,N,1902.6011,E,1,,,,,,,,*7F
$GPRMC,001851.94,A,4728.5821,N,1902.6105,E,26.13,64.32,050417,,*0E
$GPGGA,001851.94,4728.5821,N,1902.6105,E,1,,,,,,,,*4D
$GPRMC,001851.244,A,4728.5854,N,1902.6203,E,26.75,64.73,050417,,*33
$GPGGA,001851.244,4728.5854,N,1902.6203,E,1,,,,,,,,*75
$GPRMC,001851.393,A,4728.5887,N,1902.6300,E,26.47,64.70,050417,,*36
$GPGGA,001851.393,4728.5887,N,1902.6300,E,1,,,,,,,,*72
$GPRMC,001851.544,A,4728.5921,N,1902.6399,E,26.96,64.70,050417,,*3B
$GPGGA,001851.544,4728.5921,N,1902.6399,E,1,,,,,,,,*73
$GPRMC,001851.694,A,4728.5953,N,1902.6493,E,25.84,64.70,050417,,*3D
$GPGGA,001851.694,4728.5953,N,1902.6493,E,1,,,,,,,,*75
$GPRMC,001851.844,A,4728.5985,N,1902.6588,E,25.83,64.70,050417,,*39
$GPGGA,001851.844,4728.5985,N,1902.6588,E,1,,,,,,,,*76
$GPRMC,001851.995,A,4728.6018,N,1902.6683,E,25.98,64.70,050417,,*38
$GPGGA,001851.995,4728.6018,N,1902.6683,E,1,,,,,,,,*7D
$GPRMC,001852.165,A,4728.6050,N,1902.6777,E,25.68,64.70,050417,,*35
$GPGGA,001852.165,4728.6050,N,1902.6777,E,1,,,,,,,,*7F
$GPRMC,001852.295,A,4728.6082,N,1902.6871,E,25.80,64.70,050417,,*39
$GPGGA,001852.295,4728.6082,N,1902.6871,E,1,,,,,,,,*75
$GPRMC,001939.650,A,4728.6115,N,1902.6970,E,26.96,65.60,050417,,*33
$GPGGA,001939.650,4728.6115,N,1902.6970,E,1,,,,,,,,*7B
$GPRMC,001939.850,A,4728.6146,N,1902.7065,E,25.69,65.76,050417,,*33
$GPGGA,001939.850,4728.6146,N,1902.7065,E,1,,,,,,,,*7F
$GPRMC,001940.51,A,4728.6178,N,1902.7162,E,26.28,65.76,050417,,*09
$GPGGA,001940.51,4728.6178,N,1902.7162,E,1,,,,,,,,*43
$GPRMC,001940.251,A,4728.6209,N,1902.7257,E,25.79,65.76,050417,,*3C
$GPGGA,001940.251,4728.6209,N,1902.7257,E,1,,,,,,,,*71
$GPRMC,001940.450,A,4728.6240,N,1902.7354,E,26.23,65.76,050417,,*38
$GPGGA,001940.450,4728.6240,N,1902.7354,E,1,,,,,,,,*79
$GPRMC,001940.651,A,4728.6271,N,1902.7448,E,25.67,65.76,050417,,*30
$GPGGA,001940.651,4728.6271,N,1902.7448,E,1,,,,,,,,*72
$GPRMC,001940.851,A,4728.6299,N,1902.7533,E,22.99,65.76,050417,,*33
$GPGGA,001940.851,4728.6299,N,1902.7533,E,1,,,,,,,,*77
$GPRMC,001941.51,A,4728.6316,N,1902.7586,E,14.24,65.76,050417,,*01
$GPGGA,001941.51,4728.6316,N,1902.7586,E,1,,,,,,,,*46
$GPRMC,001941.251,A,4728.6326,N,1902.7615,E,08.02,65.76,050417,,*30
$GPGGA,001941.251,4728.6326,N,1902.7615,E,1,,,,,,,,*7E
$GPRMC,001941.451,A,4728.6326,N,1902.7616,E,00.05,65.76,050417,,*3A
$GPGGA,001941.451,4728.6326,N,1902.7616,E,1,,,,,,,,*7B
$GPRMC,001941.651,A,4728.6326,N,1902.7616,E,00.01,65.76,050417,,*3C
$GPGGA,001941.651,4728.6326,N,1902.7616,E,1,,,,,,,,*79
$GPRMC,001941.852,A,4728.6326,N,1902.7616,E,00.01,65.76,050417,,*31
$GPGGA,001941.852,4728.6326,N,1902.7616,E,1,,,,,,,,*74
$GPRMC,001942.52,A,4728.6326,N,1902.7616,E,00.00,65.76,050417,,*0B
$GPGGA,001942.52,4728.6326,N,1902.7616,E,1,,,,,,,,*4F
$GPRMC,001942.251,A,4728.6326,N,1902.7616,E,00.00,65.76,050417,,*3A
$GPGGA,001942.251,4728.6326,N,1902.7616,E,1,,,,,,,,*7E
$GPRMC,001942.451,A,4728.6326,N,1902.7616,E,00.00,65.76,050417,,*3C
$GPGGA,001942.451,4728.6326,N,1902.7616,E,1,,,,,,,,*78
$GPRMC,001942.652,A,4728.6326,N,1902.7616,E,00.00,65.76,050417,,*3D
$GPGGA,001942.652,4728.6326,N,1902.7616,E,1,,,,,,,,*79
$GPRMC,001942.851,A,4728.6326,N,1902.7616,E,00.00,65.76,050417,,*30
$GPGGA,001942.851,4728.6326,N,1902.7616,E,1,,,,,,,,*74
$GPRMC,001943.51,A,4728.6326,N,1902.7616,E,00.00,65.76,050417,,*09
$GPGGA,001943.51,4728.6326,N,1902.7616,E,1,,,,,,,,*4D
$GPRMC,001943.252,A,4728.6326,N,1902.7616,E,00.00,65.76,050417,,*38
$GPGGA,001943.252,4728.6326,N,1902.7616,E,1,,,,,,,,*7C
$GPRMC,001943.451,A,4728.6326,N,1902.7616,E,00.00,65.76,050417,,*3D
$GPGGA,001943.451,4728.6326,N,1902.7616,E,1,,,,,,,,*79
$GPRMC,001943.652,A,4728.6326,N,1902.7616,E,00.00,65.76,050417,,*3C
$GPGGA,001943.652,4728.6326,N,1902.7616,E,1,,,,,,,,*78
$GPRMC,001943.851,A,4728.6326,N,1902.7616,E,00.00,65.76,050417,,*31
$GPGGA,001943.851,4728.6326,N,1902.7616,E,1,,,,,,,,*75
$GPRMC,001944.52,A,4728.6326,N,1902.7616,E,00.00,65.76,050417,,*0D
$GPGGA,001944.52,4728.6326,N,1902.7616,E,1,,,,,,,,*49
$GPRMC,001944.253,A,4728.6329,N,1902.7624,E,02.31,65.75,050417,,*33
$GPGGA,001944.253,4728.6329,N,1902.7624,E,1,,,,,,,,*74
$GPRMC,001944.453,A,4728.6335,N,1902.7642,E,04.85,65.68,050417,,*3D
$GPGGA,001944.453,4728.6335,N,1902.7642,E,1,,,,,,,,*7F
$GPRMC,001944.654,A,4728.6343,N,1902.7667,E,06.83,65.62,050417,,*30
$GPGGA,001944.654,4728.6343,N,1902.7667,E,1,,,,,,,,*7C
$GPRMC,001944.854,A,4728.6354,N,1902.7701,E,09.07,65.44,050417,,*3E
$GPGGA,001944.854,4728.6354,N,1902.7701,E,1,,,,,,,,*75
$GPRMC,001945.54,A,4728.6367,N,1902.7741,E,10.88,65.54,050417,,*0D
$GPGGA,001945.54,4728.6367,N,1902.7741,E,1,,,,,,,,*48
$GPRMC,001945.254,A,4728.6382,N,1902.7789,E,13.12,66.66,050417,,*32
$GPGGA,001945.254,4728.6382,N,1902.7789,E,1,,,,,,,,*75
$GPRMC,001945.454,A,4728.6400,N,1902.7846,E,15.22,67.09,050417,,*38
$GPGGA,001945.454,4728.6400,N,1902.7846,E,1,,,,,,,,*72
$GPRMC,001945.654,A,4728.6419,N,1902.7910,E,17.11,67.09,050417,,*32
$GPGGA,001945.654,4728.6419,N,1902.7910,E,1,,,,,,,,*7A
$GPRMC,001945.853,A,4728.6441,N,1902.7981,E,19.01,67.09,050417,,*31
$GPGGA,001945.853,4728.6441,N,1902.7981,E,1,,,,,,,,*76
$GPRMC,001946.53,A,4728.6466,N,1902.8062,E,21.67,67.09,050417,,*0F
$GPGGA,001946.53,4728.6466,N,1902.8062,E,1,,,,,,,,*43
$GPRMC,001946.254,A,4728.6492,N,1902.8148,E,23.25,67.09,050417,,*3C
$GPGGA,001946.254,4728.6492,N,1902.8148,E,1,,,,,,,,*74
$GPRMC,001946.454,A,4728.6520,N,1902.8236,E,23.28,65.91,050417,,*36
$GPGGA,001946.454,4728.6520,N,1902.8236,E,1,,,,,,,,*70
$GPRMC,001946.654,A,4728.6539,N,1902.8293,E,15.66,64.67,050417,,*34
$GPGGA,001946.654,4728.6539,N,1902.8293,E,1,,,,,,,,*75
$GPRMC,001946.855,A,4728.6555,N,1902.8339,E,12.70,64.64,050417,,*33
$GPGGA,001946.855,4728.6555,N,1902.8339,E,1,,,,,,,,*71
$GPRMC,001947.55,A,4728.6567,N,1902.8375,E,09.67,64.69,050417,,*02
$GPGGA,001947.55,4728.6567,N,1902.8375,E,1,,,,,,,,*41
$GPRMC,001947.256,A,4728.6579,N,1902.8408,E,09.18,63.93,050417,,*3B
$GPGGA,001947.256,4728.6579,N,1902.8408,E,1,,,,,,,,*72
$GPRMC,001947.456,A,4728.6594,N,1902.8450,E,11.54,63.03,050417,,*3B
$GPGGA,001947.456,4728.6594,N,1902.8450,E,1,,,,,,,,*7A
$GPRMC,001947.656,A,4728.6612,N,1902.8497,E,13.10,63.09,050417,,*37
$GPGGA,001947.656,4728.6612,N,1902.8497,E,1,,,,,,,,*7E
$GPRMC,001947.857,A,4728.6632,N,1902.8553,E,15.58,63.06,050417,,*36
$GPGGA,001947.857,4728.6632,N,1902.8553,E,1,,,,,,,,*7A
$GPRMC,001948.56,A,4728.6655,N,1902.8617,E,17.61,63.06,050417,,*0A
$GPGGA,001948.56,4728.6655,N,1902.8617,E,1,,,,,,,,*4E
$GPRMC,001948.257,A,4728.6682,N,1902.8690,E,20.51,63.07,050417,,*3A
$GPGGA,001948.257,4728.6682,N,1902.8690,E,1,,,,,,,,*78
$GPRMC,001948.456,A,4728.6713,N,1902.8774,E,23.21,63.08,050417,,*34
$GPGGA,001948.456,4728.6713,N,1902.8774,E,1,,,,,,,,*7D
$GPRMC,001948.656,A,4728.6739,N,1902.8838,E,18.13,59.10,050417,,*30
$GPGGA,001948.656,4728.6739,N,1902.8838,E,1,,,,,,,,*70
$GPRMC,001948.857,A,4728.6753,N,1902.8871,E,09.62,58.54,050417,,*39
$GPGGA,001948.857,4728.6753,N,1902.8871,E,1,,,,,,,,*7E
$GPRMC,001949.57,A,4728.6756,N,1902.8876,E,01.45,58.54,050417,,*0F
$GPGGA,001949.57,4728.6756,N,1902.8876,E,1,,,,,,,,*45
$GPRMC,001949.256,A,4728.6757,N,1902.8879,E,00.69,58.54,050417,,*3D
$GPGGA,001949.256,4728.6757,N,1902.8879,E,1,,,,,,,,*78
$GPRMC,001949.457,A,4728.6757,N,1902.8879,E,00.13,58.53,050417,,*30
$GPGGA,001949.457,4728.6757,N,1902.8879,E,1,,,,,,,,*7F
$GPRMC,001949.656,A,4728.6757,N,1902.8879,E,00.02,58.53,050417,,*33
$GPGGA,001949.656,4728.6757,N,1902.8879,E,1,,,,,,,,*7C
$GPRMC,001949.857,A,4728.6757,N,1902.8879,E,00.01,58.53,050417,,*3F
$GPGGA,001949.857,4728.6757,N,1902.8879,E,1,,,,,,,,*73
$GPRMC,001950.56,A,4728.6757,N,1902.8879,E,00.00,58.53,050417,,*0F
$GPGGA,001950.56,4728.6757,N,1902.8879,E,1,,,,,,,,*42
$GPRMC,001950.257,A,4728.6757,N,1902.8879,E,00.00,58.53,050417,,*3C
$GPGGA,001950.257,4728.6757,N,1902.8879,E,1,,,,,,,,*71
$GPRMC,001950.457,A,4728.6757,N,1902.8879,E,00.00,58.53,050417,,*3A
$GPGGA,001950.457,4728.6757,N,1902.8879,E,1,,,,,,,,*77
$GPRMC,001950.657,A,4728.6757,N,1902.8879,E,00.00,58.53,050417,,*38
$GPGGA,001950.657,4728.6757,N,1902.8879,E,1,,,,,,,,*75
$GPRMC,001950.857,A,4728.6757,N,1902.8879,E,00.00,58.53,050417,,*36
$GPGGA,001950.857,4728.6757,N,1902.8879,E,1,,,,,,,,*7B
$GPRMC,001951.57,A,4728.6757,N,1902.8879,E,00.00,58.53,050417,,*0F
$GPGGA,001951.57,4728.6757,N,1902.8879,E,1,,,,,,,,*42
$GPRMC,001951.257,A,4728.6757,N,1902.8879,E,00.00,58.53,050417,,*3D
$GPGGA,001951.257,4728.6757,N,1902.8879,E,1,,,,,,,,*70
$GPRMC,001951.457,A,4728.6757,N,1902.8879,E,00.00,58.53,050417,,*3B
$GPGGA,001951.457,4728.6757,N,1902.8879,E,1,,,,,,,,*76
$GPRMC,001951.657,A,4728.6757,N,1902.8879,E,00.00,58.53,050417,,*39
$GPGGA,001951.657,4728.6757,N,1902.8879,E,1,,,,,,,,*74
$GPRMC,001951.857,A,4728.6757,N,1902.8879,E,00.00,58.53,050417,,*37
$GPGGA,001951.857,4728.6757,N,1902.8879,E,1,,,,,,,,*7A
$GPRMC,001952.57,A,4728.6757,N,1902.8879,E,00.00,58.53,050417,,*0C
$GPGGA,001952.57,4728.6757,N,1902.8879,E,1,,,,,,,,*41
$GPRMC,001952.257,A,4728.6757,N,1902.8879,E,00.00,58.53,050417,,*3E
$GPGGA,001952.257,4728.6757,N,1902.8879,E,1,,,,,,,,*73
$GPRMC,001952.458,A,4728.6757,N,1902.8879,E,00.00,58.53,050417,,*37
$GPGGA,001952.458,4728.6757,N,1902.8879,E,1,,,,,,,,*7A
$GPRMC,001952.657,A,4728.6757,N,1902.8879,E,00.00,58.53,050417,,*3A
$GPGGA,001952.657,4728.6757,N,1902.8879,E,1,,,,,,,,*77
$GPRMC,001952.857,A,4728.6757,N,1902.8879,E,00.00,58.53,050417,,*34
$GPGGA,001952.857,4728.6757,N,1902.8879,E,1,,,,,,,,*79
$GPRMC,001953.57,A,4728.6757,N,1902.8879,E,00.00,58.53,050417,,*0D
$GPGGA,001953.57,4728.6757,N,1902.8879,E,1,,,,,,,,*40
$GPRMC,001953.257,A,4728.6760,N,1902.8886,E,02.08,58.55,050417,,*37
$GPGGA,001953.257,4728.6760,N,1902.8886,E,1,,,,,,,,*76
$GPRMC,001953.457,A,4728.6766,N,1902.8900,E,03.97,59.13,050417,,*3C
$GPGGA,001953.457,4728.6766,N,1902.8900,E,1,,,,,,,,*79
$GPRMC,001953.657,A,4728.6774,N,1902.8919,E,05.46,59.94,050417,,*30
$GPGGA,001953.657,4728.6774,N,1902.8919,E,1,,,,,,,,*70
$GPRMC,001953.857,A,4728.6784,N,1902.8943,E,06.99,59.96,050417,,*3D
$GPGGA,001953.857,4728.6784,N,1902.8943,E,1,,,,,,,,*7E
$GPRMC,001954.57,A,4728.6797,N,1902.8975,E,08.98,59.96,050417,,*0A
$GPGGA,001954.57,4728.6797,N,1902.8975,E,1,,,,,,,,*46
$GPRMC,001954.257,A,4728.6812,N,1902.9012,E,10.55,60.23,050417,,*3F
$GPGGA,001954.257,4728.6812,N,1902.9012,E,1,,,,,,,,*7F
$GPRMC,001954.457,A,4728.6829,N,1902.9054,E,12.17,60.31,050417,,*34
$GPGGA,001954.457,4728.6829,N,1902.9054,E,1,,,,,,,,*73
$GPRMC,001954.657,A,4728.6850,N,1902.9105,E,14.48,60.27,050417,,*36
$GPGGA,001954.657,4728.6850,N,1902.9105,E,1,,,,,,,,*7A
$GPRMC,001954.857,A,4728.6874,N,1902.9164,E,16.68,60.27,050417,,*39
$GPGGA,001954.857,4728.6874,N,1902.9164,E,1,,,,,,,,*75
$GPRMC,001955.57,A,4728.6902,N,1902.9230,E,19.10,60.27,050417,,*02
$GPGGA,001955.57,4728.6902,N,1902.9230,E,1,,,,,,,,*4E
$GPRMC,001955.257,A,4728.6933,N,1902.9306,E,21.50,60.27,050417,,*39
$GPGGA,001955.257,4728.6933,N,1902.9306,E,1,,,,,,,,*7A
$GPRMC,001955.457,A,4728.6966,N,1902.9387,E,23.30,60.27,050417,,*32
$GPGGA,001955.457,4728.6966,N,1902.9387,E,1,,,,,,,,*75
$GPRMC,001955.657,A,4728.7002,N,1902.9476,E,25.17,60.27,050417,,*30
$GPGGA,001955.657,4728.7002,N,1902.9476,E,1,,,,,,,,*74
$GPRMC,001955.857,A,4728.7040,N,1902.9569,E,26.51,60.27,050417,,*36
$GPGGA,001955.857,4728.7040,N,1902.9569,E,1,,,,,,,,*73
$GPRMC,001956.57,A,4728.7078,N,1902.9661,E,26.27,60.27,050417,,*0C
$GPGGA,001956.57,4728.7078,N,1902.9661,E,1,,,,,,,,*48
$GPRMC,001956.257,A,4728.7107,N,1902.9732,E,20.38,60.28,050417,,*37
$GPGGA,001956.257,4728.7107,N,1902.9732,E,1,,,,,,,,*74
$GPRMC,001956.457,A,4728.7124,N,1902.9773,E,11.63,60.26,050417,,*37
$GPGGA,001956.457,4728.7124,N,1902.9773,E,1,,,,,,,,*76
$GPRMC,001956.658,A,4728.7128,N,1902.9783,E,02.89,60.24,050417,,*3D
$GPGGA,001956.658,4728.7128,N,1902.9783,E,1,,,,,,,,*78
$GPRMC,001956.858,A,4728.7129,N,1902.9784,E,00.32,60.24,050417,,*37
$GPGGA,001956.858,4728.7129,N,1902.9784,E,1,,,,,,,,*70
$GPRMC,001957.58,A,4728.7129,N,1902.9784,E,00.03,60.24,050417,,*0C
$GPGGA,001957.58,4728.7129,N,1902.9784,E,1,,,,,,,,*49
$GPRMC,001957.258,A,4728.7129,N,1902.9784,E,00.01,60.24,050417,,*3C
$GPGGA,001957.258,4728.7129,N,1902.9784,E,1,,,,,,,,*7B
$GPRMC,001957.458,A,4728.7129,N,1902.9784,E,00.00,60.24,050417,,*3B
$GPGGA,001957.458,4728.7129,N,1902.9784,E,1,,,,,,,,*7D
$GPRMC,001957.658,A,4728.7129,N,1902.9784,E,00.00,60.24,050417,,*39
$GPGGA,001957.658,4728.7129,N,1902.9784,E,1,,,,,,,,*7F
$GPRMC,001957.858,A,4728.7129,N,1902.9784,E,00.00,60.24,050417,,*37
$GPGGA,001957.858,4728.7129,N,1902.9784,E,1,,,,,,,,*71
$GPRMC,001958.59,A,4728.7129,N,1902.9784,E,00.00,60.24,050417,,*01
$GPGGA,001958.59,4728.7129,N,1902.9784,E,1,,,,,,,,*47
$GPRMC,001958.259,A,4728.7129,N,1902.9784,E,00.00,60.24,050417,,*33
$GPGGA,001958.259,4728.7129,N,1902.9784,E,1,,,,,,,,*75
$GPRMC,001958.459,A,4728.7129,N,1902.9784,E,00.00,60.24,050417,,*35
$GPGGA,001958.459,4728.7129,N,1902.9784,E,1,,,,,,,,*73
$GPRMC,001958.659,A,4728.7129,N,1902.9784,E,00.00,60.24,050417,,*37
$GPGGA,001958.659,4728.7129,N,1902.9784,E,1,,,,,,,,*71
$GPRMC,001958.859,A,4728.7129,N,1902.9784,E,00.00,60.24,050417,,*39
$GPGGA,001958.859,4728.7129,N,1902.9784,E,1,,,,,,,,*7F
$GPRMC,001959.60,A,4728.7129,N,1902.9784,E,00.00,60.24,050417,,*0A
$GPGGA,001959.60,4728.7129,N,1902.9784,E,1,,,,,,,,*4C
$GPRMC,001959.259,A,4728.7129,N,1902.9784,E,00.00,60.24,050417,,*32
$GPGGA,001959.259,4728.7129,N,1902.9784,E,1,,,,,,,,*74
$GPRMC,001959.459,A,4728.7129,N,1902.9784,E,00.00,60.24,050417,,*34
$GPGGA,001959.459,4728.7129,N,1902.9784,E,1,,,,,,,,*72
$GPRMC,001959.659,A,4728.7129,N,1902.9784,E,00.00,60.24,050417,,*36
$GPGGA,001959.659,4728.7129,N,1902.9784,E,1,,,,,,,,*70
$GPRMC,001959.859,A,4728.7129,N,1902.9784,E,00.00,60.24,050417,,*38
$GPGGA,001959.859,4728.7129,N,1902.9784,E,1,,,,,,,,*7E
$GPRMC,002000.59,A,4728.7129,N,1902.9784,E,00.00,60.24,050417,,*06
$GPGGA,002000.59,4728.7129,N,1902.9784,E,1,,,,,,,,*40
$GPRMC,002000.259,A,4728.7129,N,1902.9784,E,00.00,60.24,050417,,*34
$GPGGA,002000.259,4728.7129,N,1902.9784,E,1,,,,,,,,*72
$GPRMC,002000.458,A,4728.7129,N,1902.9784,E,00.00,60.24,050417,,*33
$GPGGA,002000.458,4728.7129,N,1902.9784,E,1,,,,,,,,*75
$GPRMC,002000.659,A,4728.7129,N,1902.9784,E,00.00,60.24,050417,,*30
$GPGGA,002000.659,4728.7129,N,1902.9784,E,1,,,,,,,,*76
$GPRMC,002000.859,A,4728.7129,N,1902.9784,E,00.00,60.24,050417,,*3E
$GPGGA,002000.859,4728.7129,N,1902.9784,E,1,,,,,,,,*78
$GPRMC,002001.59,A,4728.7129,N,1902.9784,E,00.00,60.24,050417,,*07
$GPGGA,002001.59,4728.7129,N,1902.9784,E,1,,,,,,,,*41
$GPRMC,002001.259,A,4728.7129,N,1902.9784,E,00.00,60.24,050417,,*35
$GPGGA,002001.259,4728.7129,N,1902.9784,E,1,,,,,,,,*73
$GPRMC,002001.459,A,4728.7129,N,1902.9784,E,00.00,60.24,050417,,*33
$GPGGA,002001.459,4728.7129,N,1902.9784,E,1,,,,,,,,*75
$GPRMC,002001.659,A,4728.7129,N,1902.9784,E,00.00,60.24,050417,,*31
$GPGGA,002001.659,4728.7129,N,1902.9784,E,1,,,,,,,,*77
$GPRMC,002001.859,A,4728.7129,N,1902.9784,E,00.00,60.24,050417,,*3F
$GPGGA,002001.859,4728.7129,N,1902.9784,E,1,,,,,,,,*79
$GPRMC,002002.59,A,4728.7129,N,1902.9784,E,00.00,60.24,050417,,*04
$GPGGA,002002.59,4728.7129,N,1902.9784,E,1,,,,,,,,*42
$GPRMC,002002.259,A,4728.7132,N,1902.9793,E,02.59,60.63,050417,,*37
$GPGGA,002002.259,4728.7132,N,1902.9793,E,1,,,,,,,,*7C
$GPRMC,002002.459,A,4728.7136,N,1902.9810,E,04.38,67.12,050417,,*31
$GPGGA,002002.459,4728.7136,N,1902.9810,E,1,,,,,,,,*7A
$GPRMC,002002.659,A,4728.7125,N,1902.9834,E,07.08,112.99,050417,,*07
$GPGGA,002002.659,4728.7125,N,1902.9834,E,1,,,,,,,,*7C
$GPRMC,002002.859,A,4728.7111,N,1902.9864,E,08.85,127.23,050417,,*06
$GPGGA,002002.859,4728.7111,N,1902.9864,E,1,,,,,,,,*70
$GPRMC,002003.58,A,4728.7094,N,1902.9900,E,10.78,125.19,050417,,*31
$GPGGA,002003.58,4728.7094,N,1902.9900,E,1,,,,,,,,*47
$GPRMC,002003.258,A,4728.7075,N,1902.9943,E,12.45,125.19,050417,,*07
$GPGGA,002003.258,4728.7075,N,1902.9943,E,1,,,,,,,,*7D
$GPRMC,002003.458,A,4728.7052,N,1902.9994,E,15.18,125.19,050417,,*01
$GPGGA,002003.458,4728.7052,N,1902.9994,E,1,,,,,,,,*74
$GPRMC,002003.658,A,4728.7026,N,1903.0051,E,16.71,125.19,050417,,*04
$GPGGA,002003.658,4728.7026,N,1903.0051,E,1,,,,,,,,*7D
$GPRMC,002003.859,A,4728.6996,N,1903.0117,E,19.25,125.19,050417,,*05
$GPGGA,002003.859,4728.6996,N,1903.0117,E,1,,,,,,,,*72
$GPRMC,002004.60,A,4728.6962,N,1903.0192,E,22.01,124.87,050417,,*3E
$GPGGA,002004.60,4728.6962,N,1903.0192,E,1,,,,,,,,*41
$GPRMC,002004.260,A,4728.6927,N,1903.0276,E,24.29,122.87,050417,,*0E
$GPGGA,002004.260,4728.6927,N,1903.0276,E,1,,,,,,,,*7B
$GPRMC,002004.459,A,4728.6890,N,1903.0366,E,25.67,122.87,050417,,*04
$GPGGA,002004.459,4728.6890,N,1903.0366,E,1,,,,,,,,*7A
$GPRMC,002004.659,A,4728.6851,N,1903.0460,E,26.84,122.87,050417,,*04
$GPGGA,002004.659,4728.6851,N,1903.0460,E,1,,,,,,,,*74
$GPRMC,002004.859,A,4728.6812,N,1903.0553,E,26.51,122.87,050417,,*04
$GPGGA,002004.859,4728.6812,N,1903.0553,E,1,,,,,,,,*7C
$GPRMC,002005.59,A,4728.6774,N,1903.0645,E,26.54,122.51,050417,,*38
$GPGGA,002005.59,4728.6774,N,1903.0645,E,1,,,,,,,,*4E
$GPRMC,002005.260,A,4728.6746,N,1903.0742,E,25.80,111.99,050417,,*09
$GPGGA,002005.260,4728.6746,N,1903.0742,E,1,,,,,,,,*71
$GPRMC,002005.461,A,4728.6720,N,1903.0844,E,26.49,111.97,050417,,*0F
$GPGGA,002005.461,4728.6720,N,1903.0844,E,1,,,,,,,,*7F
$GPRMC,002005.661,A,4728.6695,N,1903.0943,E,25.69,111.97,050417,,*05
$GPGGA,002005.661,4728.6695,N,1903.0943,E,1,,,,,,,,*74
$GPRMC,002005.860,A,4728.6670,N,1903.1042,E,25.89,111.97,050417,,*06
$GPGGA,002005.860,4728.6670,N,1903.1042,E,1,,,,,,,,*79
$GPRMC,002006.61,A,4728.6644,N,1903.1145,E,26.94,111.97,050417,,*32
$GPGGA,002006.61,4728.6644,N,1903.1145,E,1,,,,,,,,*42
$GPRMC,002006.261,A,4728.6618,N,1903.1248,E,26.86,111.92,050417,,*01
$GPGGA,002006.261,4728.6618,N,1903.1248,E,1,,,,,,,,*77
$GPRMC,002006.460,A,4728.6592,N,1903.1351,E,26.71,111.36,050417,,*08
$GPGGA,002006.460,4728.6592,N,1903.1351,E,1,,,,,,,,*78
$GPRMC,002006.661,A,4728.6571,N,1903.1437,E,22.36,111.36,050417,,*06
$GPGGA,002006.661,4728.6571,N,1903.1437,E,1,,,,,,,,*71
$GPRMC,002006.861,A,4728.6557,N,1903.1496,E,15.22,111.36,050417,,*06
$GPGGA,002006.861,4728.6557,N,1903.1496,E,1,,,,,,,,*70
$GPRMC,002007.60,A,4728.6540,N,1903.1564,E,17.66,110.38,050417,,*39
$GPGGA,002007.60,4728.6540,N,1903.1564,E,1,,,,,,,,*42
$GPRMC,002007.261,A,4728.6523,N,1903.1641,E,19.66,109.54,050417,,*07
$GPGGA,002007.261,4728.6523,N,1903.1641,E,1,,,,,,,,*70
$GPRMC,002007.462,A,4728.6504,N,1903.1726,E,21.96,109.54,050417,,*03
$GPGGA,002007.462,4728.6504,N,1903.1726,E,1,,,,,,,,*70
$GPRMC,002007.662,A,4728.6483,N,1903.1822,E,24.75,109.54,050417,,*0C
$GPGGA,002007.662,4728.6483,N,1903.1822,E,1,,,,,,,,*77
$GPRMC,002007.862,A,4728.6460,N,1903.1926,E,26.61,109.54,050417,,*0D
$GPGGA,002007.862,4728.6460,N,1903.1926,E,1,,,,,,,,*71
$GPRMC,002008.62,A,4728.6440,N,1903.2019,E,23.84,109.54,050417,,*30
$GPGGA,002008.62,4728.6440,N,1903.2019,E,1,,,,,,,,*42
$GPRMC,002008.262,A,4728.6427,N,1903.2078,E,15.09,109.54,050417,,*04
$GPGGA,002008.262,4728.6427,N,1903.2078,E,1,,,,,,,,*76
$GPRMC,002008.462,A,4728.6413,N,1903.2145,E,17.26,106.06,050417,,*0D
$GPGGA,002008.462,4728.6413,N,1903.2145,E,1,,,,,,,,*78
$GPRMC,002008.661,A,4728.6418,N,1903.2225,E,19.51,84.22,050417,,*31
$GPGGA,002008.661,4728.6418,N,1903.2225,E,1,,,,,,,,*77
$GPRMC,002008.864,A,4728.6426,N,1903.2312,E,21.42,84.21,050417,,*38
$GPGGA,002008.864,4728.6426,N,1903.2312,E,1,,,,,,,,*74
$GPRMC,002009.62,A,4728.6434,N,1903.2410,E,24.22,84.21,050417,,*02
$GPGGA,002009.62,4728.6434,N,1903.2410,E,1,,,,,,,,*4D
$GPRMC,002009.262,A,4728.6443,N,1903.2515,E,25.75,84.21,050417,,*37
$GPGGA,002009.262,4728.6443,N,1903.2515,E,1,,,,,,,,*7B
$GPRMC,002009.463,A,4728.6453,N,1903.2624,E,26.90,84.24,050417,,*3D
$GPGGA,002009.463,4728.6453,N,1903.2624,E,1,,,,,,,,*7C
$GPRMC,002009.663,A,4728.6460,N,1903.2710,E,21.06,84.24,050417,,*31
$GPGGA,002009.663,4728.6460,N,1903.2710,E,1,,,,,,,,*78
$GPRMC,002009.863,A,4728.6465,N,1903.2764,E,13.25,84.24,050417,,*39
$GPGGA,002009.863,4728.6465,N,1903.2764,E,1,,,,,,,,*70
$GPRMC,002010.63,A,4728.6470,N,1903.2826,E,15.32,83.53,050417,,*03
$GPGGA,002010.63,4728.6470,N,1903.2826,E,1,,,,,,,,*4D
$GPRMC,002010.263,A,4728.6477,N,1903.2898,E,17.96,82.89,050417,,*39
$GPGGA,002010.263,4728.6477,N,1903.2898,E,1,,,,,,,,*7D
$GPRMC,002010.463,A,4728.6486,N,1903.2979,E,19.83,82.85,050417,,*39
$GPGGA,002010.463,4728.6486,N,1903.2979,E,1,,,,,,,,*7B
$GPRMC,002010.663,A,4728.6495,N,1903.3066,E,21.53,82.85,050417,,*39
$GPGGA,002010.663,4728.6495,N,1903.3066,E,1,,,,,,,,*7D
$GPRMC,002010.863,A,4728.6505,N,1903.3163,E,24.08,82.85,050417,,*30
$GPGGA,002010.863,4728.6505,N,1903.3163,E,1,,,,,,,,*7F
$GPRMC,002011.64,A,4728.6516,N,1903.3272,E,26.90,82.85,050417,,*0C
$GPGGA,002011.64,4728.6516,N,1903.3272,E,1,,,,,,,,*40
$GPRMC,002011.263,A,4728.6526,N,1903.3376,E,25.69,82.85,050417,,*3A
$GPGGA,002011.263,4728.6526,N,1903.3376,E,1,,,,,,,,*73
$GPRMC,002011.464,A,4728.6535,N,1903.3463,E,21.37,82.85,050417,,*35
$GPGGA,002011.464,4728.6535,N,1903.3463,E,1,,,,,,,,*73
$GPRMC,002011.663,A,4728.6541,N,1903.3516,E,13.19,82.85,050417,,*3D
$GPGGA,002011.663,4728.6541,N,1903.3516,E,1,,,,,,,,*76
$GPRMC,002011.864,A,4728.6552,N,1903.3576,E,15.27,71.36,050417,,*3F
$GPGGA,002011.864,4728.6552,N,1903.3576,E,1,,,,,,,,*7B
$GPRMC,002012.63,A,4728.6599,N,1903.3590,E,18.16,00.09,050417,,*09
$GPGGA,002012.63,4728.6599,N,1903.3590,E,1,,,,,,,,*48
$GPRMC,002012.263,A,4728.6656,N,1903.3587,E,20.40,359.26,050417,,*07
$GPGGA,002012.263,4728.6656,N,1903.3587,E,1,,,,,,,,*7C
$GPRMC,002012.464,A,4728.6716,N,1903.3583,E,21.92,359.26,050417,,*09
$GPGGA,002012.464,4728.6716,N,1903.3583,E,1,,,,,,,,*7C
$GPRMC,002012.664,A,4728.6782,N,1903.3580,E,23.45,359.26,050417,,*0D
$GPGGA,002012.664,4728.6782,N,1903.3580,E,1,,,,,,,,*70
$GPRMC,002012.863,A,4728.6852,N,1903.3576,E,25.41,359.26,050417,,*0D
$GPGGA,002012.863,4728.6852,N,1903.3576,E,1,,,,,,,,*72
$GPRMC,002013.64,A,4728.6926,N,1903.3572,E,26.50,359.26,050417,,*36
$GPGGA,002013.64,4728.6926,N,1903.3572,E,1,,,,,,,,*4A
$GPRMC,002013.263,A,4728.6995,N,1903.3568,E,25.16,359.26,050417,,*01
$GPGGA,002013.263,4728.6995,N,1903.3568,E,1,,,,,,,,*7C
$GPRMC,002013.463,A,4728.7041,N,1903.3565,E,16.41,359.26,050417,,*09
$GPGGA,002013.463,4728.7041,N,1903.3565,E,1,,,,,,,,*76
$GPRMC,002013.663,A,4728.7062,N,1903.3556,E,08.33,347.58,050417,,*06
$GPGGA,002013.663,4728.7062,N,1903.3556,E,1,,,,,,,,*75
$GPRMC,002013.864,A,4728.7065,N,1903.3515,E,10.62,273.29,050417,,*02
$GPGGA,002013.864,4728.7065,N,1903.3515,E,1,,,,,,,,*7C
$GPRMC,002014.63,A,4728.7056,N,1903.3464,E,12.82,257.44,050417,,*3C
$GPGGA,002014.63,4728.7056,N,1903.3464,E,1,,,,,,,,*43
$GPRMC,002014.264,A,4728.7047,N,1903.3407,E,14.29,257.44,050417,,*0B
$GPGGA,002014.264,4728.7047,N,1903.3407,E,1,,,,,,,,*73
$GPRMC,002014.464,A,4728.7036,N,1903.3344,E,15.85,257.44,050417,,*0C
$GPGGA,002014.464,4728.7036,N,1903.3344,E,1,,,,,,,,*73
$GPRMC,002014.664,A,4728.7024,N,1903.3274,E,17.60,257.44,050417,,*06
$GPGGA,002014.664,4728.7024,N,1903.3274,E,1,,,,,,,,*70
$GPRMC,002014.863,A,4728.7011,N,1903.3195,E,19.77,257.44,050417,,*0D
$GPGGA,002014.863,4728.7011,N,1903.3195,E,1,,,,,,,,*73
$GPRMC,002015.64,A,4728.6997,N,1903.3111,E,21.31,257.44,050417,,*30
$GPGGA,002015.64,4728.6997,N,1903.3111,E,1,,,,,,,,*47
$GPRMC,002015.264,A,4728.6980,N,1903.3015,E,24.12,257.44,050417,,*05
$GPGGA,002015.264,4728.6980,N,1903.3015,E,1,,,,,,,,*76
$GPRMC,002015.463,A,4728.6963,N,1903.2910,E,26.45,257.44,050417,,*04
$GPGGA,002015.463,4728.6963,N,1903.2910,E,1,,,,,,,,*77
$GPRMC,002015.663,A,4728.6945,N,1903.2806,E,26.17,257.44,050417,,*03
$GPGGA,002015.663,4728.6945,N,1903.2806,E,1,,,,,,,,*77
$GPRMC,002015.864,A,4728.6927,N,1903.2701,E,26.41,257.44,050417,,*05
$GPGGA,002015.864,4728.6927,N,1903.2701,E,1,,,,,,,,*72
$GPRMC,002016.63,A,4728.6910,N,1903.2597,E,26.10,257.44,050417,,*34
$GPGGA,002016.63,4728.6910,N,1903.2597,E,1,,,,,,,,*47
$GPRMC,002016.264,A,4728.6892,N,1903.2491,E,26.58,257.44,050417,,*01
$GPGGA,002016.264,4728.6892,N,1903.2491,E,1,,,,,,,,*7E
$GPRMC,002016.464,A,4728.6875,N,1903.2390,E,25.63,257.44,050417,,*03
$GPGGA,002016.464,4728.6875,N,1903.2390,E,1,,,,,,,,*77
$GPRMC,002016.663,A,4728.6861,N,1903.2306,E,21.06,257.44,050417,,*0B
$GPGGA,002016.663,4728.6861,N,1903.2306,E,1,,,,,,,,*78
$GPRMC,002016.864,A,4728.6852,N,1903.2255,E,12.69,257.44,050417,,*0C
$GPGGA,002016.864,4728.6852,N,1903.2255,E,1,,,,,,,,*76
$GPRMC,002017.64,A,4728.6841,N,1903.2198,E,14.49,254.28,050417,,*38
$GPGGA,002017.64,4728.6841,N,1903.2198,E,1,,,,,,,,*4F
$GPRMC,002017.263,A,4728.6801,N,1903.2175,E,17.02,185.69,050417,,*0C
$GPGGA,002017.263,4728.6801,N,1903.2175,E,1,,,,,,,,*7D
$GPRMC,002017.464,A,4728.6749,N,1903.2169,E,19.09,185.69,050417,,*06
$GPGGA,002017.464,4728.6749,N,1903.2169,E,1,,,,,,,,*72
$GPRMC,002017.664,A,4728.6688,N,1903.2162,E,21.86,185.69,050417,,*0F
$GPGGA,002017.664,4728.6688,N,1903.2162,E,1,,,,,,,,*77
$GPRMC,002017.863,A,4728.6621,N,1903.2155,E,24.23,185.69,050417,,*0B
$GPGGA,002017.863,4728.6621,N,1903.2155,E,1,,,,,,,,*79
$GPRMC,002018.64,A,4728.6548,N,1903.2147,E,26.29,185.69,050417,,*3C
$GPGGA,002018.64,4728.6548,N,1903.2147,E,1,,,,,,,,*46
$GPRMC,002018.264,A,4728.6476,N,1903.2139,E,26.09,185.69,050417,,*09
$GPGGA,002018.264,4728.6476,N,1903.2139,E,1,,,,,,,,*71
$GPRMC,002018.464,A,4728.6403,N,1903.2129,E,26.32,188.29,050417,,*0D
$GPGGA,002018.464,4728.6403,N,1903.2129,E,1,,,,,,,,*74
$GPRMC,002018.663,A,4728.6332,N,1903.2110,E,25.92,192.20,050417,,*0C
$GPGGA,002018.663,4728.6332,N,1903.2110,E,1,,,,,,,,*7E
$GPRMC,002018.863,A,4728.6259,N,1903.2089,E,26.96,192.20,050417,,*08
$GPGGA,002018.863,4728.6259,N,1903.2089,E,1,,,,,,,,*7D
$GPRMC,002019.64,A,4728.6189,N,1903.2069,E,25.67,192.20,050417,,*3B
$GPGGA,002019.64,4728.6189,N,1903.2069,E,1,,,,,,,,*43
$GPRMC,002019.263,A,4728.6118,N,1903.2049,E,25.99,192.20,050417,,*05
$GPGGA,002019.263,4728.6118,N,1903.2049,E,1,,,,,,,,*7C
$GPRMC,002019.463,A,4728.6046,N,1903.2029,E,26.22,192.20,050417,,*0C
$GPGGA,002019.463,4728.6046,N,1903.2029,E,1,,,,,,,,*76
$GPRMC,002019.664,A,4728.5976,N,1903.2009,E,25.95,192.20,050417,,*0D
$GPGGA,002019.664,4728.5976,N,1903.2009,E,1,,,,,,,,*78
$GPRMC,002019.864,A,4728.5904,N,1903.1989,E,26.25,192.20,050417,,*0C
$GPGGA,002019.864,4728.5904,N,1903.1989,E,1,,,,,,,,*71
$GPRMC,002020.63,A,4728.5833,N,1903.1970,E,25.94,192.20,050417,,*33
$GPGGA,002020.63,4728.5833,N,1903.1970,E,1,,,,,,,,*47
$GPRMC,002020.264,A,4728.5760,N,1903.1949,E,26.85,192.20,050417,,*06
$GPGGA,002020.264,4728.5760,N,1903.1949,E,1,,,,,,,,*71
$GPRMC,002020.463,A,4728.5688,N,1903.1928,E,26.40,193.06,050417,,*0B
$GPGGA,002020.463,4728.5688,N,1903.1928,E,1,,,,,,,,*70
$GPRMC,002020.663,A,4728.5615,N,1903.1906,E,26.82,192.39,050417,,*02
$GPGGA,002020.663,4728.5615,N,1903.1906,E,1,,,,,,,,*7A
$GPRMC,002020.864,A,4728.5541,N,1903.1886,E,26.98,191.85,050417,,*0F
$GPGGA,002020.864,4728.5541,N,1903.1886,E,1,,,,,,,,*78
$GPRMC,002021.63,A,4728.5470,N,1903.1867,E,26.06,191.85,050417,,*3A
$GPGGA,002021.63,4728.5470,N,1903.1867,E,1,,,,,,,,*4A
$GPRMC,002021.264,A,4728.5400,N,1903.1848,E,25.67,191.85,050417,,*01
$GPGGA,002021.264,4728.5400,N,1903.1848,E,1,,,,,,,,*75
$GPRMC,002021.465,A,4728.5328,N,1903.1828,E,26.35,191.85,050417,,*09
$GPGGA,002021.465,4728.5328,N,1903.1828,E,1,,,,,,,,*79
$GPRMC,002021.665,A,4728.5258,N,1903.1809,E,25.85,191.85,050417,,*06
$GPGGA,002021.665,4728.5258,N,1903.1809,E,1,,,,,,,,*7E
$GPRMC,002021.864,A,4728.5184,N,1903.1789,E,26.89,191.85,050417,,*03
$GPGGA,002021.864,4728.5184,N,1903.1789,E,1,,,,,,,,*74
$GPRMC,002022.65,A,4728.5111,N,1903.1769,E,26.76,191.85,050417,,*3B
$GPGGA,002022.65,4728.5111,N,1903.1769,E,1,,,,,,,,*4C
$GPRMC,002022.264,A,4728.5038,N,1903.1750,E,26.78,191.85,050417,,*06
$GPGGA,002022.264,4728.5038,N,1903.1750,E,1,,,,,,,,*7F
$GPRMC,002022.465,A,4728.4965,N,1903.1730,E,26.54,191.85,050417,,*09
$GPGGA,002022.465,4728.4965,N,1903.1730,E,1,,,,,,,,*7E
$GPRMC,002022.665,A,4728.4892,N,1903.1710,E,26.88,191.85,050417,,*01
$GPGGA,002022.665,4728.4892,N,1903.1710,E,1,,,,,,,,*77
$GPRMC,002022.865,A,4728.4821,N,1903.1691,E,26.11,191.85,050417,,*0F
$GPGGA,002022.865,4728.4821,N,1903.1691,E,1,,,,,,,,*79
$GPRMC,002023.65,A,4728.4750,N,1903.1672,E,25.72,191.85,050417,,*34
$GPGGA,002023.65,4728.4750,N,1903.1672,E,1,,,,,,,,*44
$GPRMC,002023.265,A,4728.4678,N,1903.1652,E,26.47,191.85,050417,,*0A
$GPGGA,002023.265,4728.4678,N,1903.1652,E,1,,,,,,,,*7F
$GPRMC,002023.466,A,4728.4605,N,1903.1632,E,26.76,191.85,050417,,*01
$GPGGA,002023.466,4728.4605,N,1903.1632,E,1,,,,,,,,*76
$GPRMC,002023.666,A,4728.4532,N,1903.1613,E,26.77,191.85,050417,,*06
$GPGGA,002023.666,4728.4532,N,1903.1613,E,1,,,,,,,,*70
$GPRMC,002023.866,A,4728.4462,N,1903.1592,E,25.65,192.64,050417,,*0A
$GPGGA,002023.866,4728.4462,N,1903.1592,E,1,,,,,,,,*70
$GPRMC,002024.66,A,4728.4389,N,1903.1571,E,26.74,192.80,050417,,*33
$GPGGA,002024.66,4728.4389,N,1903.1571,E,1,,,,,,,,*40
$GPRMC,002024.266,A,4728.4327,N,1903.1553,E,22.92,192.09,050417,,*08
$GPGGA,002024.266,4728.4327,N,1903.1553,E,1,,,,,,,,*76
$GPRMC,002024.466,A,4728.4288,N,1903.1541,E,14.17,193.09,050417,,*00
$GPGGA,002024.466,4728.4288,N,1903.1541,E,1,,,,,,,,*77
$GPRMC,002024.666,A,4728.4245,N,1903.1529,E,15.92,191.45,050417,,*0B
$GPGGA,002024.666,4728.4245,N,1903.1529,E,1,,,,,,,,*7A
$GPRMC,002024.867,A,4728.4194,N,1903.1516,E,18.41,191.45,050417,,*04
$GPGGA,002024.867,4728.4194,N,1903.1516,E,1,,,,,,,,*76
$GPRMC,002025.67,A,4728.4153,N,1903.1507,E,15.24,189.90,050417,,*39
$GPGGA,002025.67,4728.4153,N,1903.1507,E,1,,,,,,,,*44
$GPRMC,002025.267,A,4728.4105,N,1903.1499,E,17.31,185.80,050417,,*05
$GPGGA,002025.267,4728.4105,N,1903.1499,E,1,,,,,,,,*73
$GPRMC,002025.467,A,4728.4050,N,1903.1494,E,19.87,185.25,050417,,*03
$GPGGA,002025.467,4728.4050,N,1903.1494,E,1,,,,,,,,*79
$GPRMC,002025.667,A,4728.3993,N,1903.1492,E,20.46,182.66,050417,,*01
$GPGGA,002025.667,4728.3993,N,1903.1492,E,1,,,,,,,,*7C
$GPRMC,002025.868,A,4728.3961,N,1903.1491,E,11.72,182.66,050417,,*0B
$GPGGA,002025.868,4728.3961,N,1903.1491,E,1,,,,,,,,*73
$GPRMC,002026.68,A,4728.3971,N,1903.1517,E,14.03,31.98,050417,,*05
$GPGGA,002026.68,4728.3971,N,1903.1517,E,1,,,,,,,,*46
$GPRMC,002026.268,A,4728.4015,N,1903.1519,E,15.92,02.66,050417,,*3D
$GPGGA,002026.268,4728.4015,N,1903.1519,E,1,,,,,,,,*76
$GPRMC,002026.468,A,4728.4043,N,1903.1520,E,10.09,02.66,050417,,*35
$GPGGA,002026.468,4728.4043,N,1903.1520,E,1,,,,,,,,*79
$GPRMC,002026.668,A,4728.4075,N,1903.1527,E,11.72,11.52,050417,,*3D
$GPGGA,002026.668,4728.4075,N,1903.1527,E,1,,,,,,,,*79
$GPRMC,002026.869,A,4728.4099,N,1903.1567,E,13.62,57.07,050417,,*35
$GPGGA,002026.869,4728.4099,N,1903.1567,E,1,,,,,,,,*70
$GPRMC,002027.69,A,4728.4114,N,1903.1626,E,15.21,70.27,050417,,*08
$GPGGA,002027.69,4728.4114,N,1903.1626,E,1,,,,,,,,*4B
$GPRMC,002027.269,A,4728.4140,N,1903.1690,E,17.72,58.72,050417,,*38
$GPGGA,002027.269,4728.4140,N,1903.1690,E,1,,,,,,,,*75
$GPRMC,002027.469,A,4728.4171,N,1903.1760,E,20.30,58.84,050417,,*39
$GPGGA,002027.469,4728.4171,N,1903.1760,E,1,,,,,,,,*7F
$GPRMC,002027.669,A,4728.4205,N,1903.1840,E,23.12,58.84,050417,,*35
$GPGGA,002027.669,4728.4205,N,1903.1840,E,1,,,,,,,,*70
$GPRMC,002027.868,A,4728.4243,N,1903.1927,E,25.43,58.84,050417,,*3A
$GPGGA,002027.868,4728.4243,N,1903.1927,E,1,,,,,,,,*7D
$GPRMC,002028.69,A,4728.4285,N,1903.2018,E,26.71,55.98,050417,,*02
$GPGGA,002028.69,4728.4285,N,1903.2018,E,1,,,,,,,,*47
$GPRMC,002028.269,A,4728.4329,N,1903.2107,E,26.76,55.46,050417,,*3C
$GPGGA,002028.269,4728.4329,N,1903.2107,E,1,,,,,,,,*7D
$GPRMC,002028.468,A,4728.4371,N,1903.2192,E,25.64,55.46,050417,,*3A
$GPGGA,002028.468,4728.4371,N,1903.2192,E,1,,,,,,,,*7B
$GPRMC,002028.669,A,4728.4414,N,1903.2281,E,26.69,55.46,050417,,*32
$GPGGA,002028.669,4728.4414,N,1903.2281,E,1,,,,,,,,*7D
$GPRMC,002028.868,A,4728.4456,N,1903.2366,E,25.75,55.10,050417,,*3E
$GPGGA,002028.868,4728.4456,N,1903.2366,E,1,,,,,,,,*7C
$GPRMC,002029.69,A,4728.4498,N,1903.2451,E,25.78,55.82,050417,,*01
$GPGGA,002029.69,4728.4498,N,1903.2451,E,1,,,,,,,,*45
$GPRMC,002029.270,A,4728.4540,N,1903.2536,E,25.61,55.82,050417,,*37
$GPGGA,002029.270,4728.4540,N,1903.2536,E,1,,,,,,,,*7B
$GPRMC,002029.470,A,4728.4581,N,1903.2622,E,25.67,55.81,050417,,*3F
$GPGGA,002029.470,4728.4581,N,1903.2622,E,1,,,,,,,,*76
$GPRMC,002029.670,A,4728.4625,N,1903.2711,E,26.92,55.85,050417,,*3C
$GPGGA,002029.670,4728.4625,N,1903.2711,E,1,,,,,,,,*78
$GPRMC,002029.870,A,4728.4667,N,1903.2798,E,26.01,55.85,050417,,*3F
$GPGGA,002029.870,4728.4667,N,1903.2798,E,1,,,,,,,,*71
$GPRMC,002030.69,A,4728.4709,N,1903.2885,E,26.16,56.12,050417,,*06
$GPGGA,002030.69,4728.4709,N,1903.2885,E,1,,,,,,,,*43
$GPRMC,002030.269,A,4728.4751,N,1903.2974,E,26.40,56.47,050417,,*35
$GPGGA,002030.269,4728.4751,N,1903.2974,E,1,,,,,,,,*73
$GPRMC,002030.469,A,4728.4793,N,1903.3062,E,26.30,56.47,050417,,*35
$GPGGA,002030.469,4728.4793,N,1903.3062,E,1,,,,,,,,*74
$GPRMC,002030.669,A,4728.4835,N,1903.3151,E,26.68,56.47,050417,,*38
$GPGGA,002030.669,4728.4835,N,1903.3151,E,1,,,,,,,,*74
$GPRMC,002030.869,A,4728.4878,N,1903.3242,E,26.97,56.47,050417,,*3E
$GPGGA,002030.869,4728.4878,N,1903.3242,E,1,,,,,,,,*72
$GPRMC,002031.69,A,4728.4919,N,1903.3329,E,25.78,56.47,050417,,*0F
$GPGGA,002031.69,4728.4919,N,1903.3329,E,1,,,,,,,,*41
$GPRMC,002031.270,A,4728.4961,N,1903.3417,E,26.46,56.47,050417,,*3E
$GPGGA,002031.270,4728.4961,N,1903.3417,E,1,,,,,,,,*7E
$GPRMC,002031.470,A,4728.4989,N,1903.3507,E,25.87,86.96,050417,,*31
$GPGGA,002031.470,4728.4989,N,1903.3507,E,1,,,,,,,,*7E
$GPRMC,002031.670,A,4728.4984,N,1903.3595,E,21.63,94.23,050417,,*36
$GPGGA,002031.670,4728.4984,N,1903.3595,E,1,,,,,,,,*7A
$GPRMC,002031.870,A,4728.4974,N,1903.3646,E,12.89,107.25,050417,,*03
$GPGGA,002031.870,4728.4974,N,1903.3646,E,1,,,,,,,,*76
$GPRMC,002032.70,A,4728.4952,N,1903.3696,E,14.92,129.74,050417,,*35
$GPGGA,002032.70,4728.4952,N,1903.3696,E,1,,,,,,,,*44
$GPRMC,002032.270,A,4728.4908,N,1903.3719,E,16.59,162.23,050417,,*06
$GPGGA,002032.270,4728.4908,N,1903.3719,E,1,,,,,,,,*7F
$GPRMC,002032.470,A,4728.4860,N,1903.3744,E,18.52,162.23,050417,,*02
$GPGGA,002032.470,4728.4860,N,1903.3744,E,1,,,,,,,,*7E
$GPRMC,002032.670,A,4728.4807,N,1903.3771,E,20.02,162.16,050417,,*0F
$GPGGA,002032.670,4728.4807,N,1903.3771,E,1,,,,,,,,*7B
$GPRMC,002032.870,A,4728.4751,N,1903.3800,E,21.71,162.84,050417,,*0A
$GPGGA,002032.870,4728.4751,N,1903.3800,E,1,,,,,,,,*70
$GPRMC,002033.70,A,4728.4687,N,1903.3830,E,24.03,163.50,050417,,*32
$GPGGA,002033.70,4728.4687,N,1903.3830,E,1,,,,,,,,*40
$GPRMC,002033.271,A,4728.4619,N,1903.3862,E,25.81,163.48,050417,,*03
$GPGGA,002033.271,4728.4619,N,1903.3862,E,1,,,,,,,,*73
$GPRMC,002033.470,A,4728.4550,N,1903.3895,E,26.13,163.48,050417,,*0A
$GPGGA,002033.470,4728.4550,N,1903.3895,E,1,,,,,,,,*72
$GPRMC,002033.670,A,4728.4481,N,1903.3929,E,26.42,163.48,050417,,*07
$GPGGA,002033.670,4728.4481,N,1903.3929,E,1,,,,,,,,*7B
$GPRMC,002033.870,A,4728.4412,N,1903.3961,E,25.92,163.48,050417,,*01
$GPGGA,002033.870,4728.4412,N,1903.3961,E,1,,,,,,,,*73
$GPRMC,002034.71,A,4728.4343,N,1903.3985,E,25.84,169.59,050417,,*3B
$GPGGA,002034.71,4728.4343,N,1903.3985,E,1,,,,,,,,*44
$GPRMC,002034.271,A,4728.4270,N,1903.4003,E,26.61,174.16,050417,,*07
$GPGGA,002034.271,4728.4270,N,1903.4003,E,1,,,,,,,,*77
$GPRMC,002034.471,A,4728.4200,N,1903.4006,E,25.70,182.77,050417,,*0E
$GPGGA,002034.471,4728.4200,N,1903.4006,E,1,,,,,,,,*73
$GPRMC,002034.671,A,4728.4129,N,1903.3996,E,25.89,189.02,050417,,*0C
$GPGGA,002034.671,4728.4129,N,1903.3996,E,1,,,,,,,,*7E
$GPRMC,002034.871,A,4728.4057,N,1903.3975,E,26.62,194.13,050417,,*0D
$GPGGA,002034.871,4728.4057,N,1903.3975,E,1,,,,,,,,*75
$GPRMC,002035.71,A,4728.3989,N,1903.3948,E,25.64,197.85,050417,,*3E
$GPGGA,002035.71,4728.3989,N,1903.3948,E,1,,,,,,,,*4F
$GPRMC,002035.271,A,4728.3924,N,1903.3908,E,25.56,205.87,050417,,*04
$GPGGA,002035.271,4728.3924,N,1903.3908,E,1,,,,,,,,*7E
$GPRMC,002035.471,A,4728.3862,N,1903.3858,E,25.72,211.76,050417,,*08
$GPGGA,002035.471,4728.3862,N,1903.3858,E,1,,,,,,,,*7F
$GPRMC,002035.671,A,4728.3805,N,1903.3795,E,25.76,221.12,050417,,*00
$GPGGA,002035.671,4728.3805,N,1903.3795,E,1,,,,,,,,*72
$GPRMC,002035.871,A,4728.3752,N,1903.3719,E,26.83,227.82,050417,,*01
$GPGGA,002035.871,4728.3752,N,1903.3719,E,1,,,,,,,,*75
$GPRMC,002036.71,A,4728.3705,N,1903.3640,E,25.93,231.83,050417,,*31
$GPGGA,002036.71,4728.3705,N,1903.3640,E,1,,,,,,,,*41
$GPRMC,002036.271,A,4728.3662,N,1903.3558,E,25.59,236.81,050417,,*0A
$GPGGA,002036.271,4728.3662,N,1903.3558,E,1,,,,,,,,*79
$GPRMC,002036.471,A,4728.3621,N,1903.3469,E,26.48,236.81,050417,,*0B
$GPGGA,002036.471,4728.3621,N,1903.3469,E,1,,,,,,,,*7B
$GPRMC,002036.671,A,4728.3579,N,1903.3381,E,26.56,236.81,050417,,*09
$GPGGA,002036.671,4728.3579,N,1903.3381,E,1,,,,,,,,*76
$GPRMC,002036.871,A,4728.3539,N,1903.3295,E,25.71,236.81,050417,,*01
$GPGGA,002036.871,4728.3539,N,1903.3295,E,1,,,,,,,,*78
$GPRMC,002037.71,A,4728.3498,N,1903.3207,E,26.11,236.81,050417,,*3C
$GPGGA,002037.71,4728.3498,N,1903.3207,E,1,,,,,,,,*40
$GPRMC,002037.271,A,4728.3458,N,1903.3121,E,25.73,236.81,050417,,*02
$GPGGA,002037.271,4728.3458,N,1903.3121,E,1,,,,,,,,*79
$GPRMC,002037.471,A,4728.3416,N,1903.3032,E,26.76,236.81,050417,,*0B
$GPGGA,002037.471,4728.3416,N,1903.3032,E,1,,,,,,,,*76
$GPRMC,002037.671,A,4728.3377,N,1903.2945,E,25.61,237.87,050417,,*03
$GPGGA,002037.671,4728.3377,N,1903.2945,E,1,,,,,,,,*7C
$GPRMC,002037.872,A,4728.3338,N,1903.2856,E,25.75,238.58,050417,,*0E
$GPGGA,002037.872,4728.3338,N,1903.2856,E,1,,,,,,,,*79
$GPRMC,002038.73,A,4728.3294,N,1903.2766,E,27.00,234.52,050417,,*35
$GPGGA,002038.73,4728.3294,N,1903.2766,E,1,,,,,,,,*44
$GPRMC,002038.274,A,4728.3247,N,1903.2684,E,25.94,229.57,050417,,*05
$GPGGA,002038.274,4728.3247,N,1903.2684,E,1,,,,,,,,*72
$GPRMC,002038.474,A,4728.3196,N,1903.2602,E,26.98,228.29,050417,,*05
$GPGGA,002038.474,4728.3196,N,1903.2602,E,1,,,,,,,,*75
$GPRMC,002038.674,A,4728.3139,N,1903.2530,E,26.91,222.57,050417,,*0A
$GPGGA,002038.674,4728.3139,N,1903.2530,E,1,,,,,,,,*70
$GPRMC,002038.874,A,4728.3082,N,1903.2460,E,26.54,219.95,050417,,*0E
$GPGGA,002038.874,4728.3082,N,1903.2460,E,1,,,,,,,,*7B
$GPRMC,002039.74,A,4728.3024,N,1903.2395,E,26.24,217.53,050417,,*35
$GPGGA,002039.74,4728.3024,N,1903.2395,E,1,,,,,,,,*43
$GPRMC,002039.274,A,4728.2966,N,1903.2333,E,25.55,217.53,050417,,*00
$GPGGA,002039.274,4728.2966,N,1903.2333,E,1,,,,,,,,*73
$GPRMC,002039.474,A,4728.2905,N,1903.2275,E,26.13,213.79,050417,,*0D
$GPGGA,002039.474,4728.2905,N,1903.2275,E,1,,,,,,,,*73
$GPRMC,002039.674,A,4728.2840,N,1903.2219,E,26.78,210.21,050417,,*06
$GPGGA,002039.674,4728.2840,N,1903.2219,E,1,,,,,,,,*7B
$GPRMC,002039.874,A,4728.2776,N,1903.2167,E,26.33,210.18,050417,,*0D
$GPGGA,002039.874,4728.2776,N,1903.2167,E,1,,,,,,,,*75
$GPRMC,002040.75,A,4728.2709,N,1903.2117,E,26.76,208.27,050417,,*31
$GPGGA,002040.75,4728.2709,N,1903.2117,E,1,,,,,,,,*4D
$GPRMC,002040.275,A,4728.2643,N,1903.2073,E,26.14,203.18,050417,,*0C
$GPGGA,002040.275,4728.2643,N,1903.2073,E,1,,,,,,,,*73
$GPRMC,002040.475,A,4728.2576,N,1903.2035,E,25.89,202.25,050417,,*05
$GPGGA,002040.475,4728.2576,N,1903.2035,E,1,,,,,,,,*72
$GPRMC,002040.675,A,4728.2506,N,1903.1999,E,26.53,199.62,050417,,*0A
$GPGGA,002040.675,4728.2506,N,1903.1999,E,1,,,,,,,,*7B
$GPRMC,002040.875,A,4728.2439,N,1903.1960,E,26.07,209.43,050417,,*07
$GPGGA,002040.875,4728.2439,N,1903.1960,E,1,,,,,,,,*7E
$GPRMC,002041.75,A,4728.2422,N,1903.1894,E,17.32,257.34,050417,,*31
$GPGGA,002041.75,4728.2422,N,1903.1894,E,1,,,,,,,,*47
$GPRMC,002041.275,A,4728.2424,N,1903.1860,E,08.58,273.20,050417,,*0F
$GPGGA,002041.275,4728.2424,N,1903.1860,E,1,,,,,,,,*78
$GPRMC,002041.475,A,4728.2432,N,1903.1816,E,11.36,287.38,050417,,*0D
$GPGGA,002041.475,4728.2432,N,1903.1816,E,1,,,,,,,,*78
$GPRMC,002041.675,A,4728.2468,N,1903.1803,E,13.59,348.03,050417,,*05
$GPGGA,002041.675,4728.2468,N,1903.1803,E,1,,,,,,,,*71
$GPRMC,002041.875,A,4728.2512,N,1903.1788,E,16.25,348.03,050417,,*05
$GPGGA,002041.875,4728.2512,N,1903.1788,E,1,,,,,,,,*7F
$GPRMC,002042.75,A,4728.2564,N,1903.1770,E,19.15,348.03,050417,,*34
$GPGGA,002042.75,4728.2564,N,1903.1770,E,1,,,,,,,,*42
$GPRMC,002042.275,A,4728.2623,N,1903.1749,E,21.74,348.03,050417,,*00
$GPGGA,002042.275,4728.2623,N,1903.1749,E,1,,,,,,,,*7A
$GPRMC,002042.474,A,4728.2686,N,1903.1727,E,23.53,348.03,050417,,*07
$GPGGA,002042.474,4728.2686,N,1903.1727,E,1,,,,,,,,*7A
$GPRMC,002042.674,A,4728.2756,N,1903.1702,E,25.75,348.03,050417,,*0C
$GPGGA,002042.674,4728.2756,N,1903.1702,E,1,,,,,,,,*73
$GPRMC,002042.875,A,4728.2826,N,1903.1678,E,25.84,348.03,050417,,*09
$GPGGA,002042.875,4728.2826,N,1903.1678,E,1,,,,,,,,*78
$GPRMC,002043.75,A,4728.2895,N,1903.1653,E,25.66,348.03,050417,,*3D
$GPGGA,002043.75,4728.2895,N,1903.1653,E,1,,,,,,,,*40
$GPRMC,002043.275,A,4728.2951,N,1903.1634,E,20.78,348.03,050417,,*0D
$GPGGA,002043.275,4728.2951,N,1903.1634,E,1,,,,,,,,*7A
$GPRMC,002043.476,A,4728.2982,N,1903.1618,E,12.03,341.67,050417,,*0E
$GPGGA,002043.476,4728.2982,N,1903.1618,E,1,,,,,,,,*7F
$GPRMC,002043.675,A,4728.2996,N,1903.1564,E,14.91,280.65,050417,,*01
$GPGGA,002043.675,4728.2996,N,1903.1564,E,1,,,,,,,,*73
$GPRMC,002043.875,A,4728.3001,N,1903.1495,E,16.94,276.83,050417,,*00
$GPGGA,002043.875,4728.3001,N,1903.1495,E,1,,,,,,,,*74
$GPRMC,002044.76,A,4728.3011,N,1903.1420,E,18.75,286.76,050417,,*37
$GPGGA,002044.76,4728.3011,N,1903.1420,E,1,,,,,,,,*47
$GPRMC,002044.276,A,4728.3026,N,1903.1339,E,20.32,286.61,050417,,*00
$GPGGA,002044.276,4728.3026,N,1903.1339,E,1,,,,,,,,*7E
$GPRMC,002044.475,A,4728.3042,N,1903.1249,E,22.91,286.61,050417,,*0A
$GPGGA,002044.475,4728.3042,N,1903.1249,E,1,,,,,,,,*7F
$GPRMC,002044.675,A,4728.3061,N,1903.1149,E,25.29,286.61,050417,,*0E
$GPGGA,002044.675,4728.3061,N,1903.1149,E,1,,,,,,,,*7F
$GPRMC,002044.876,A,4728.3079,N,1903.1043,E,26.62,285.57,050417,,*0B
$GPGGA,002044.876,4728.3079,N,1903.1043,E,1,,,,,,,,*70
$GPRMC,002045.76,A,4728.3093,N,1903.0965,E,19.79,285.57,050417,,*3C
$GPGGA,002045.76,4728.3093,N,1903.0965,E,1,,,,,,,,*41
$GPRMC,002045.276,A,4728.3093,N,1903.0919,E,11.04,272.11,050417,,*0D
$GPGGA,002045.276,4728.3093,N,1903.0919,E,1,,,,,,,,*78
$GPRMC,002045.475,A,4728.3092,N,1903.0866,E,13.00,269.74,050417,,*0F
$GPGGA,002045.475,4728.3092,N,1903.0866,E,1,,,,,,,,*75
$GPRMC,002045.675,A,4728.3091,N,1903.0803,E,15.55,268.98,050417,,*08
$GPGGA,002045.675,4728.3091,N,1903.0803,E,1,,,,,,,,*77
$GPRMC,002045.875,A,4728.3089,N,1903.0728,E,18.22,270.54,050417,,*0D
$GPGGA,002045.875,4728.3089,N,1903.0728,E,1,,,,,,,,*76
$GPRMC,002046.75,A,4728.3106,N,1903.0649,E,20.31,289.05,050417,,*3D
$GPGGA,002046.75,4728.3106,N,1903.0649,E,1,,,,,,,,*4D
$GPRMC,002046.276,A,4728.3125,N,1903.0561,E,22.50,289.05,050417,,*01
$GPGGA,002046.276,4728.3125,N,1903.0561,E,1,,,,,,,,*74
$GPRMC,002046.476,A,4728.3145,N,1903.0467,E,24.18,289.05,050417,,*0C
$GPGGA,002046.476,4728.3145,N,1903.0467,E,1,,,,,,,,*73
$GPRMC,002046.676,A,4728.3167,N,1903.0366,E,25.85,289.05,050417,,*0D
$GPGGA,002046.676,4728.3167,N,1903.0366,E,1,,,,,,,,*77
$GPRMC,002046.875,A,4728.3189,N,1903.0263,E,26.45,289.05,050417,,*0B
$GPGGA,002046.875,4728.3189,N,1903.0263,E,1,,,,,,,,*7E
$GPRMC,002047.76,A,4728.3211,N,1903.0162,E,25.81,289.05,050417,,*3A
$GPGGA,002047.76,4728.3211,N,1903.0162,E,1,,,,,,,,*44
$GPRMC,002047.276,A,4728.3233,N,1903.0059,E,26.37,289.05,050417,,*0F
$GPGGA,002047.276,4728.3233,N,1903.0059,E,1,,,,,,,,*7F
$GPRMC,002047.475,A,4728.3254,N,1902.9955,E,26.47,288.05,050417,,*00
$GPGGA,002047.475,4728.3254,N,1902.9955,E,1,,,,,,,,*76
$GPRMC,002047.675,A,4728.3275,N,1902.9854,E,25.79,287.77,050417,,*05
$GPGGA,002047.675,4728.3275,N,1902.9854,E,1,,,,,,,,*77
$GPRMC,002047.875,A,4728.3296,N,1902.9749,E,26.81,287.77,050417,,*01
$GPGGA,002047.875,4728.3296,N,1902.9749,E,1,,,,,,,,*77
$GPRMC,002048.76,A,4728.3316,N,1902.9645,E,26.46,287.77,050417,,*3A
$GPGGA,002048.76,4728.3316,N,1902.9645,E,1,,,,,,,,*47
$GPRMC,002048.276,A,4728.3337,N,1902.9540,E,26.71,288.07,050417,,*01
$GPGGA,002048.276,4728.3337,N,1902.9540,E,1,,,,,,,,*70
$GPRMC,002048.475,A,4728.3359,N,1902.9434,E,26.94,288.09,050417,,*0B
$GPGGA,002048.475,4728.3359,N,1902.9434,E,1,,,,,,,,*7F
$GPRMC,002048.675,A,4728.3380,N,1902.9328,E,26.97,288.09,050417,,*04
$GPGGA,002048.675,4728.3380,N,1902.9328,E,1,,,,,,,,*73
$GPRMC,002048.876,A,4728.3401,N,1902.9226,E,26.19,288.09,050417,,*0E
$GPGGA,002048.876,4728.3401,N,1902.9226,E,1,,,,,,,,*7F
$GPRMC,002049.76,A,4728.3422,N,1902.9123,E,26.08,288.02,050417,,*3B
$GPGGA,002049.76,4728.3422,N,1902.9123,E,1,,,,,,,,*41
$GPRMC,002049.276,A,4728.3442,N,1902.9020,E,26.34,287.94,050417,,*02
$GPGGA,002049.276,4728.3442,N,1902.9020,E,1,,,,,,,,*77
$GPRMC,002049.475,A,4728.3463,N,1902.8917,E,26.30,287.94,050417,,*0C
$GPGGA,002049.475,4728.3463,N,1902.8917,E,1,,,,,,,,*7D
$GPRMC,002049.675,A,4728.3484,N,1902.8815,E,25.94,287.94,050417,,*09
$GPGGA,002049.675,4728.3484,N,1902.8815,E,1,,,,,,,,*75
$GPRMC,002049.875,A,4728.3505,N,1902.8710,E,26.69,287.94,050417,,*04
$GPGGA,002049.875,4728.3505,N,1902.8710,E,1,,,,,,,,*79
$GPRMC,002050.75,A,4728.3526,N,1902.8606,E,26.45,288.89,050417,,*3E
$GPGGA,002050.75,4728.3526,N,1902.8606,E,1,,,,,,,,*4E
$GPRMC,002050.275,A,4728.3549,N,1902.8503,E,26.61,289.37,050417,,*01
$GPGGA,002050.275,4728.3549,N,1902.8503,E,1,,,,,,,,*73
$GPRMC,002050.475,A,4728.3571,N,1902.8402,E,25.77,289.11,050417,,*0C
$GPGGA,002050.475,4728.3571,N,1902.8402,E,1,,,,,,,,*7E
$GPRMC,002050.675,A,4728.3593,N,1902.8298,E,26.72,288.14,050417,,*05
$GPGGA,002050.675,4728.3593,N,1902.8298,E,1,,,,,,,,*75
$GPRMC,002050.876,A,4728.3614,N,1902.8194,E,26.32,288.14,050417,,*0F
$GPGGA,002050.876,4728.3614,N,1902.8194,E,1,,,,,,,,*7B
$GPRMC,002051.76,A,4728.3634,N,1902.8094,E,25.70,288.14,050417,,*30
$GPGGA,002051.76,4728.3634,N,1902.8094,E,1,,,,,,,,*41
$GPRMC,002051.276,A,4728.3655,N,1902.7991,E,26.18,288.14,050417,,*0B
$GPGGA,002051.276,4728.3655,N,1902.7991,E,1,,,,,,,,*77
$GPRMC,002051.477,A,4728.3676,N,1902.7889,E,25.96,288.14,050417,,*00
$GPGGA,002051.477,4728.3676,N,1902.7889,E,1,,,,,,,,*79
$GPRMC,002051.678,A,4728.3696,N,1902.7787,E,25.93,288.14,050417,,*07
$GPGGA,002051.678,4728.3696,N,1902.7787,E,1,,,,,,,,*7B
$GPRMC,002051.878,A,4728.3711,N,1902.7715,E,18.37,288.14,050417,,*0C
$GPGGA,002051.878,4728.3711,N,1902.7715,E,1,,,,,,,,*70
$GPRMC,002052.78,A,4728.3719,N,1902.7678,E,09.62,288.12,050417,,*33
$GPGGA,002052.78,4728.3719,N,1902.7678,E,1,,,,,,,,*49
$GPRMC,002052.279,A,4728.3730,N,1902.7631,E,12.18,291.36,050417,,*0F
$GPGGA,002052.279,4728.3730,N,1902.7631,E,1,,,,,,,,*7C
$GPRMC,002052.479,A,4728.3740,N,1902.7593,E,09.91,292.07,050417,,*0F
$GPGGA,002052.479,4728.3740,N,1902.7593,E,1,,,,,,,,*76
$GPRMC,002052.680,A,4728.3749,N,1902.7548,E,11.48,286.99,050417,,*0B
$GPGGA,002052.680,4728.3749,N,1902.7548,E,1,,,,,,,,*7D
$GPRMC,002052.880,A,4728.3757,N,1902.7492,E,14.07,286.60,050417,,*04
$GPGGA,002052.880,4728.3757,N,1902.7492,E,1,,,,,,,,*7A
$GPRMC,002053.81,A,4728.3774,N,1902.7428,E,16.69,292.18,050417,,*3C
$GPGGA,002053.81,4728.3774,N,1902.7428,E,1,,,,,,,,*42
$GPRMC,002053.280,A,4728.3792,N,1902.7357,E,18.54,292.16,050417,,*06
$GPGGA,002053.280,4728.3792,N,1902.7357,E,1,,,,,,,,*76
$GPRMC,002053.481,A,4728.3812,N,1902.7277,E,20.77,292.16,050417,,*0F
$GPGGA,002053.481,4728.3812,N,1902.7277,E,1,,,,,,,,*75
$GPRMC,002053.681,A,4728.3835,N,1902.7189,E,23.13,292.16,050417,,*0B
$GPGGA,002053.681,4728.3835,N,1902.7189,E,1,,,,,,,,*70
$GPRMC,002053.882,A,4728.3860,N,1902.7093,E,24.94,292.16,050417,,*04
$GPGGA,002053.882,4728.3860,N,1902.7093,E,1,,,,,,,,*77
$GPRMC,002054.81,A,4728.3886,N,1902.6991,E,26.72,292.16,050417,,*30
$GPGGA,002054.81,4728.3886,N,1902.6991,E,1,,,,,,,,*49
$GPRMC,002054.281,A,4728.3907,N,1902.6910,E,21.19,292.16,050417,,*09
$GPGGA,002054.281,4728.3907,N,1902.6910,E,1,,,,,,,,*7A
$GPRMC,002054.482,A,4728.3920,N,1902.6859,E,13.21,292.16,050417,,*0F
$GPGGA,002054.482,4728.3920,N,1902.6859,E,1,,,,,,,,*76
$GPRMC,002054.682,A,4728.3934,N,1902.6800,E,15.33,291.84,050417,,*09
$GPGGA,002054.682,4728.3934,N,1902.6800,E,1,,,,,,,,*7D
$GPRMC,002054.882,A,4728.3952,N,1902.6731,E,17.88,291.58,050417,,*09
$GPGGA,002054.882,4728.3952,N,1902.6731,E,1,,,,,,,,*7E
$GPRMC,002055.82,A,4728.3971,N,1902.6653,E,20.45,291.56,050417,,*3F
$GPGGA,002055.82,4728.3971,N,1902.6653,E,1,,,,,,,,*43
$GPRMC,002055.283,A,4728.3993,N,1902.6564,E,23.14,291.56,050417,,*00
$GPGGA,002055.283,4728.3993,N,1902.6564,E,1,,,,,,,,*7B
$GPRMC,002055.483,A,4728.4018,N,1902.6465,E,25.66,291.56,050417,,*08
$GPGGA,002055.483,4728.4018,N,1902.6465,E,1,,,,,,,,*70
$GPRMC,002055.682,A,4728.4043,N,1902.6366,E,25.88,291.56,050417,,*01
$GPGGA,002055.682,4728.4043,N,1902.6366,E,1,,,,,,,,*79
$GPRMC,002055.883,A,4728.4065,N,1902.6276,E,23.21,291.56,050417,,*0F
$GPGGA,002055.883,4728.4065,N,1902.6276,E,1,,,,,,,,*72
$GPRMC,002056.84,A,4728.4078,N,1902.6221,E,14.47,291.56,050417,,*39
$GPGGA,002056.84,4728.4078,N,1902.6221,E,1,,,,,,,,*40
$GPRMC,002056.283,A,4728.4094,N,1902.6156,E,16.77,291.21,050417,,*0C
$GPGGA,002056.283,4728.4094,N,1902.6156,E,1,,,,,,,,*74
$GPRMC,002056.484,A,4728.4112,N,1902.6081,E,19.50,290.80,050417,,*09
$GPGGA,002056.484,4728.4112,N,1902.6081,E,1,,,,,,,,*71
$GPRMC,002056.683,A,4728.4133,N,1902.5995,E,22.34,290.80,050417,,*0A
$GPGGA,002056.683,4728.4133,N,1902.5995,E,1,,,,,,,,*78
$GPRMC,002056.883,A,4728.4155,N,1902.5901,E,24.29,290.80,050417,,*03
$GPGGA,002056.883,4728.4155,N,1902.5901,E,1,,,,,,,,*7B
$GPRMC,002057.84,A,4728.4180,N,1902.5797,E,26.91,290.80,050417,,*35
$GPGGA,002057.84,4728.4180,N,1902.5797,E,1,,,,,,,,*4C
$GPRMC,002057.284,A,4728.4204,N,1902.5695,E,26.40,290.80,050417,,*07
$GPGGA,002057.284,4728.4204,N,1902.5695,E,1,,,,,,,,*72
$GPRMC,002057.484,A,4728.4228,N,1902.5596,E,25.65,290.80,050417,,*0B
$GPGGA,002057.484,4728.4228,N,1902.5596,E,1,,,,,,,,*7A
$GPRMC,002057.684,A,4728.4244,N,1902.5530,E,16.91,290.80,050417,,*04
$GPGGA,002057.684,4728.4244,N,1902.5530,E,1,,,,,,,,*7E
$GPRMC,002057.883,A,4728.4251,N,1902.5498,E,08.50,290.80,050417,,*08
$GPGGA,002057.883,4728.4251,N,1902.5498,E,1,,,,,,,,*70
$GPRMC,002058.84,A,4728.4261,N,1902.5457,E,10.46,291.18,050417,,*36
$GPGGA,002058.84,4728.4261,N,1902.5457,E,1,,,,,,,,*40
$GPRMC,002058.284,A,4728.4274,N,1902.5407,E,13.13,291.59,050417,,*03
$GPGGA,002058.284,4728.4274,N,1902.5407,E,1,,,,,,,,*73
$GPRMC,002058.485,A,4728.4289,N,1902.5347,E,15.60,291.60,050417,,*0D
$GPGGA,002058.485,4728.4289,N,1902.5347,E,1,,,,,,,,*75
$GPRMC,002058.684,A,4728.4306,N,1902.5277,E,18.08,291.60,050417,,*09
$GPGGA,002058.684,4728.4306,N,1902.5277,E,1,,,,,,,,*72
$GPRMC,002058.885,A,4728.4326,N,1902.5198,E,20.70,291.60,050417,,*02
$GPGGA,002058.885,4728.4326,N,1902.5198,E,1,,,,,,,,*7D
$GPRMC,002059.85,A,4728.4348,N,1902.5109,E,22.96,291.60,050417,,*31
$GPGGA,002059.85,4728.4348,N,1902.5109,E,1,,,,,,,,*44
$GPRMC,002059.285,A,4728.4372,N,1902.5011,E,25.55,291.60,050417,,*0A
$GPGGA,002059.285,4728.4372,N,1902.5011,E,1,,,,,,,,*77
$GPRMC,002059.485,A,4728.4397,N,1902.4910,E,26.31,291.60,050417,,*0F
$GPGGA,002059.485,4728.4397,N,1902.4910,E,1,,,,,,,,*73
$GPRMC,002059.685,A,4728.4423,N,1902.4807,E,26.83,291.60,050417,,*0B
$GPGGA,002059.685,4728.4423,N,1902.4807,E,1,,,,,,,,*7E
$GPRMC,002059.885,A,4728.4448,N,1902.4707,E,25.97,291.60,050417,,*01
$GPGGA,002059.885,4728.4448,N,1902.4707,E,1,,,,,,,,*72
$GPRMC,002100.85,A,4728.4474,N,1902.4603,E,26.95,291.60,050417,,*3F
$GPGGA,002100.85,4728.4474,N,1902.4603,E,1,,,,,,,,*4D
$GPRMC,002100.284,A,4728.4498,N,1902.4504,E,25.98,291.60,050417,,*04
$GPGGA,002100.284,4728.4498,N,1902.4504,E,1,,,,,,,,*78
$GPRMC,002100.484,A,4728.4524,N,1902.4400,E,26.95,291.60,050417,,*0F
$GPGGA,002100.484,4728.4524,N,1902.4400,E,1,,,,,,,,*7D
$GPRMC,002100.684,A,4728.4549,N,1902.4299,E,26.13,291.60,050417,,*0E
$GPGGA,002100.684,4728.4549,N,1902.4299,E,1,,,,,,,,*72
$GPRMC,002100.884,A,4728.4575,N,1902.4197,E,26.66,291.60,050417,,*00
$GPGGA,002100.884,4728.4575,N,1902.4197,E,1,,,,,,,,*7E
$GPRMC,002101.85,A,4728.4599,N,1902.4099,E,25.58,291.57,050417,,*3F
$GPGGA,002101.85,4728.4599,N,1902.4099,E,1,,,,,,,,*4B
$GPRMC,002101.285,A,4728.4625,N,1902.3996,E,26.67,291.57,050417,,*07
$GPGGA,002101.285,4728.4625,N,1902.3996,E,1,,,,,,,,*7C
$GPRMC,002101.485,A,4728.4657,N,1902.3902,E,26.03,308.50,050417,,*0D
$GPGGA,002101.485,4728.4657,N,1902.3902,E,1,,,,,,,,*72
$GPRMC,002101.685,A,4728.4683,N,1902.3802,E,26.09,291.81,050417,,*00
$GPGGA,002101.685,4728.4683,N,1902.3802,E,1,,,,,,,,*78
$GPRMC,002101.884,A,4728.4708,N,1902.3704,E,25.72,291.81,050417,,*0B
$GPGGA,002101.884,4728.4708,N,1902.3704,E,1,,,,,,,,*7C
$GPRMC,002102.84,A,4728.4732,N,1902.3605,E,25.70,291.81,050417,,*3B
$GPGGA,002102.84,4728.4732,N,1902.3605,E,1,,,,,,,,*4E
$GPRMC,002102.285,A,4728.4758,N,1902.3504,E,26.40,291.81,050417,,*06
$GPGGA,002102.285,4728.4758,N,1902.3504,E,1,,,,,,,,*73
$GPRMC,002102.484,A,4728.4778,N,1902.3422,E,21.30,291.81,050417,,*06
$GPGGA,002102.484,4728.4778,N,1902.3422,E,1,,,,,,,,*73
$GPRMC,002102.685,A,4728.4791,N,1902.3372,E,13.10,291.73,050417,,*0E
$GPGGA,002102.685,4728.4791,N,1902.3372,E,1,,,,,,,,*75
$GPRMC,002102.884,A,4728.4804,N,1902.3314,E,14.96,289.16,050417,,*01
$GPGGA,002102.884,4728.4804,N,1902.3314,E,1,,,,,,,,*79
$GPRMC,002103.84,A,4728.4819,N,1902.3244,E,17.68,288.54,050417,,*35
$GPGGA,002103.84,4728.4819,N,1902.3244,E,1,,,,,,,,*48
$GPRMC,002103.285,A,4728.4828,N,1902.3196,E,12.34,287.50,050417,,*0F
$GPGGA,002103.285,4728.4828,N,1902.3196,E,1,,,,,,,,*75
$GPRMC,002103.485,A,4728.4839,N,1902.3137,E,14.88,287.84,050417,,*0A
$GPGGA,002103.485,4728.4839,N,1902.3137,E,1,,,,,,,,*78
$GPRMC,002103.684,A,4728.4853,N,1902.3070,E,17.26,288.33,050417,,*03
