$GPRMC,230753.231,A,4728.5907,N,1902.1108,E,01.56,110.51,180317,,*09
$GPGGA,230753.231,4728.5907,N,1902.1108,E,1,,,,,,,,*72
$GPRMC,230753.247,A,4728.5904,N,1902.1121,E,03.18,110.51,180317,,*08
$GPGGA,230753.247,4728.5904,N,1902.1121,E,1,,,,,,,,*7B
$GPRMC,230753.392,A,4728.5899,N,1902.1142,E,05.63,110.51,180317,,*0B
$GPGGA,230753.392,4728.5899,N,1902.1142,E,1,,,,,,,,*72
$GPRMC,230753.542,A,4728.5891,N,1902.1175,E,08.36,110.51,180317,,*01
$GPGGA,230753.542,4728.5891,N,1902.1175,E,1,,,,,,,,*75
$GPRMC,230753.693,A,4728.5881,N,1902.1217,E,11.01,110.51,180317,,*04
$GPGGA,230753.693,4728.5881,N,1902.1217,E,1,,,,,,,,*7C
$GPRMC,230753.841,A,4728.5869,N,1902.1271,E,13.86,110.51,180317,,*0E
$GPGGA,230753.841,4728.5869,N,1902.1271,E,1,,,,,,,,*7B
$GPRMC,230753.991,A,4728.5854,N,1902.1335,E,16.48,110.51,180317,,*0A
$GPGGA,230753.991,4728.5854,N,1902.1335,E,1,,,,,,,,*78
$GPRMC,230754.141,A,4728.5837,N,1902.1405,E,18.19,110.51,180317,,*03
$GPGGA,230754.141,4728.5837,N,1902.1405,E,1,,,,,,,,*7B
$GPRMC,230754.291,A,4728.5819,N,1902.1483,E,20.28,110.51,180317,,*06
$GPGGA,230754.291,4728.5819,N,1902.1483,E,1,,,,,,,,*77
$GPRMC,230754.441,A,4728.5799,N,1902.1570,E,22.42,110.51,180317,,*09
$GPGGA,230754.441,4728.5799,N,1902.1570,E,1,,,,,,,,*76
$GPRMC,230754.591,A,4728.5777,N,1902.1664,E,24.47,110.51,180317,,*00
$GPGGA,230754.591,4728.5777,N,1902.1664,E,1,,,,,,,,*7C
$GPRMC,230754.741,A,4728.5753,N,1902.1764,E,25.61,110.51,180317,,*0D
$GPGGA,230754.741,4728.5753,N,1902.1764,E,1,,,,,,,,*74
$GPRMC,230754.891,A,4728.5730,N,1902.1863,E,25.59,110.51,180317,,*09
$GPGGA,230754.891,4728.5730,N,1902.1863,E,1,,,,,,,,*7B
$GPRMC,230755.40,A,4728.5706,N,1902.1965,E,26.33,110.51,180317,,*31
$GPGGA,230755.40,4728.5706,N,1902.1965,E,1,,,,,,,,*4C
$GPRMC,230755.191,A,4728.5683,N,1902.2065,E,26.05,110.51,180317,,*0F
$GPGGA,230755.191,4728.5683,N,1902.2065,E,1,,,,,,,,*77
$GPRMC,230755.340,A,4728.5660,N,1902.2165,E,25.65,110.51,180317,,*08
$GPGGA,230755.340,4728.5660,N,1902.2165,E,1,,,,,,,,*75
$GPRMC,230755.491,A,4728.5636,N,1902.2265,E,25.91,110.52,180317,,*0B
$GPGGA,230755.491,4728.5636,N,1902.2265,E,1,,,,,,,,*7E
$GPRMC,230755.641,A,4728.5612,N,1902.2367,E,26.45,110.51,180317,,*08
$GPGGA,230755.641,4728.5612,N,1902.2367,E,1,,,,,,,,*74
$GPRMC,230755.791,A,4728.5605,N,1902.2477,E,26.05,110.51,180317,,*00
$GPGGA,230755.791,4728.5605,N,1902.2477,E,1,,,,,,,,*78
$GPRMC,230755.940,A,4728.5581,N,1902.2580,E,26.77,110.51,180317,,*01
$GPGGA,230755.940,4728.5581,N,1902.2580,E,1,,,,,,,,*7C
$GPRMC,230756.91,A,4728.5557,N,1902.2681,E,25.91,110.51,180317,,*35
$GPGGA,230756.91,4728.5557,N,1902.2681,E,1,,,,,,,,*43
$GPRMC,230756.241,A,4728.5534,N,1902.2780,E,25.70,110.51,180317,,*00
$GPGGA,230756.241,4728.5534,N,1902.2780,E,1,,,,,,,,*79
$GPRMC,230756.391,A,4728.5511,N,1902.2879,E,25.60,110.51,180317,,*03
$GPGGA,230756.391,4728.5511,N,1902.2879,E,1,,,,,,,,*7B
$GPRMC,230756.541,A,4728.5487,N,1902.2984,E,26.96,110.51,180317,,*0F
$GPGGA,230756.541,4728.5487,N,1902.2984,E,1,,,,,,,,*7D
$GPRMC,230756.692,A,4728.5463,N,1902.3088,E,26.99,109.89,180317,,*0E
$GPGGA,230756.692,4728.5463,N,1902.3088,E,1,,,,,,,,*7E
$GPRMC,230756.842,A,4728.5440,N,1902.3192,E,26.58,107.73,180317,,*00
$GPGGA,230756.842,4728.5440,N,1902.3192,E,1,,,,,,,,*76
$GPRMC,230756.992,A,4728.5425,N,1902.3296,E,26.84,109.81,180317,,*0A
$GPGGA,230756.992,4728.5425,N,1902.3296,E,1,,,,,,,,*7E
$GPRMC,230757.142,A,4728.5402,N,1902.3399,E,26.42,109.81,180317,,*0F
$GPGGA,230757.142,4728.5402,N,1902.3399,E,1,,,,,,,,*71
$GPRMC,230757.292,A,4728.5379,N,1902.3502,E,26.56,109.81,180317,,*0B
$GPGGA,230757.292,4728.5379,N,1902.3502,E,1,,,,,,,,*70
$GPRMC,230757.443,A,4728.5356,N,1902.3602,E,25.82,109.81,180317,,*05
$GPGGA,230757.443,4728.5356,N,1902.3602,E,1,,,,,,,,*74
$GPRMC,230757.592,A,4728.5333,N,1902.3704,E,26.04,109.81,180317,,*01
$GPGGA,230757.592,4728.5333,N,1902.3704,E,1,,,,,,,,*7D
$GPRMC,230757.743,A,4728.5311,N,1902.3805,E,26.09,109.78,180317,,*0A
$GPGGA,230757.743,4728.5311,N,1902.3805,E,1,,,,,,,,*7D
$GPRMC,230757.892,A,4728.5288,N,1902.3905,E,25.82,109.83,180317,,*0D
$GPGGA,230757.892,4728.5288,N,1902.3905,E,1,,,,,,,,*7E
$GPRMC,230758.42,A,4728.5266,N,1902.4005,E,25.68,109.83,180317,,*3D
$GPGGA,230758.42,4728.5266,N,1902.4005,E,1,,,,,,,,*4A
$GPRMC,230758.193,A,4728.5243,N,1902.4106,E,25.73,109.79,180317,,*0A
$GPGGA,230758.193,4728.5243,N,1902.4106,E,1,,,,,,,,*72
$GPRMC,230758.343,A,4728.5219,N,1902.4215,E,26.19,109.66,180317,,*0A
$GPGGA,230758.343,4728.5219,N,1902.4215,E,1,,,,,,,,*73
$GPRMC,230758.493,A,4728.5215,N,1902.4308,E,22.36,86.41,180317,,*3B
$GPGGA,230758.493,4728.5215,N,1902.4308,E,1,,,,,,,,*78
$GPRMC,230758.643,A,4728.5216,N,1902.4318,E,14.50,83.83,180317,,*38
$GPGGA,230758.643,4728.5216,N,1902.4318,E,1,,,,,,,,*75
$GPRMC,230758.792,A,4728.5220,N,1902.4353,E,16.36,81.87,180317,,*3B
$GPGGA,230758.792,4728.5220,N,1902.4353,E,1,,,,,,,,*72
$GPRMC,230758.943,A,4728.5231,N,1902.4430,E,19.20,77.98,180317,,*34
$GPGGA,230758.943,4728.5231,N,1902.4430,E,1,,,,,,,,*72
$GPRMC,230759.93,A,4728.5250,N,1902.4513,E,21.18,71.79,180317,,*0F
$GPGGA,230759.93,4728.5250,N,1902.4513,E,1,,,,,,,,*40
$GPRMC,230759.243,A,4728.5276,N,1902.4600,E,22.92,65.45,180317,,*3E
$GPGGA,230759.243,4728.5276,N,1902.4600,E,1,,,,,,,,*7A
$GPRMC,230759.393,A,4728.5308,N,1902.4691,E,24.79,62.68,180317,,*39
$GPGGA,230759.393,4728.5308,N,1902.4691,E,1,,,,,,,,*76
$GPRMC,230759.542,A,4728.5342,N,1902.4783,E,25.64,62.68,180317,,*32
$GPGGA,230759.542,4728.5342,N,1902.4783,E,1,,,,,,,,*70
$GPRMC,230759.693,A,4728.5377,N,1902.4877,E,26.32,63.32,180317,,*31
$GPGGA,230759.693,4728.5377,N,1902.4877,E,1,,,,,,,,*7D
$GPRMC,230759.843,A,4728.5411,N,1902.4973,E,26.47,63.39,180317,,*39
$GPGGA,230759.843,4728.5411,N,1902.4973,E,1,,,,,,,,*7C
$GPRMC,230759.993,A,4728.5446,N,1902.5069,E,26.53,63.39,180317,,*31
$GPGGA,230759.993,4728.5446,N,1902.5069,E,1,,,,,,,,*71
$GPRMC,230800.142,A,4728.5480,N,1902.5163,E,25.99,63.39,180317,,*32
$GPGGA,230800.142,4728.5480,N,1902.5163,E,1,,,,,,,,*77
$GPRMC,230800.293,A,4728.5514,N,1902.5258,E,26.36,63.39,180317,,*3C
$GPGGA,230800.293,4728.5514,N,1902.5258,E,1,,,,,,,,*7F
$GPRMC,230800.442,A,4728.5549,N,1902.5355,E,26.81,63.39,180317,,*3E
$GPGGA,230800.442,4728.5549,N,1902.5355,E,1,,,,,,,,*71
$GPRMC,230800.593,A,4728.5583,N,1902.5449,E,25.94,63.39,180317,,*38
$GPGGA,230800.593,4728.5583,N,1902.5449,E,1,,,,,,,,*70
$GPRMC,230800.786,A,4728.5617,N,1902.5542,E,25.79,63.39,180317,,*39
$GPGGA,230800.786,4728.5617,N,1902.5542,E,1,,,,,,,,*72
$GPRMC,230800.892,A,4728.5650,N,1902.5634,E,25.55,63.39,180317,,*3C
$GPGGA,230800.892,4728.5650,N,1902.5634,E,1,,,,,,,,*79
$GPRMC,230801.43,A,4728.5685,N,1902.5730,E,26.54,63.39,180317,,*06
$GPGGA,230801.43,4728.5685,N,1902.5730,E,1,,,,,,,,*41
$GPRMC,230801.192,A,4728.5719,N,1902.5824,E,26.01,63.41,180317,,*3A
$GPGGA,230801.192,4728.5719,N,1902.5824,E,1,,,,,,,,*72
$GPRMC,230801.343,A,4728.5753,N,1902.5918,E,25.93,63.26,180317,,*3D
$GPGGA,230801.343,4728.5753,N,1902.5918,E,1,,,,,,,,*7C
$GPRMC,230801.492,A,4728.5787,N,1902.6011,E,25.85,63.04,180317,,*3B
$GPGGA,230801.492,4728.5787,N,1902.6011,E,1,,,,,,,,*7D
$GPRMC,230801.642,A,4728.5821,N,1902.6105,E,26.13,64.32,180317,,*3D
$GPGGA,230801.642,4728.5821,N,1902.6105,E,1,,,,,,,,*75
$GPRMC,230801.792,A,4728.5854,N,1902.6203,E,26.75,64.73,180317,,*33
$GPGGA,230801.792,4728.5854,N,1902.6203,E,1,,,,,,,,*7E
$GPRMC,230801.943,A,4728.5887,N,1902.6300,E,26.47,64.70,180317,,*3F
$GPGGA,230801.943,4728.5887,N,1902.6300,E,1,,,,,,,,*70
$GPRMC,230802.93,A,4728.5921,N,1902.6399,E,26.96,64.70,180317,,*09
$GPGGA,230802.93,4728.5921,N,1902.6399,E,1,,,,,,,,*4A
$GPRMC,230802.243,A,4728.5953,N,1902.6493,E,25.84,64.70,180317,,*3E
$GPGGA,230802.243,4728.5953,N,1902.6493,E,1,,,,,,,,*7D
$GPRMC,230802.393,A,4728.5985,N,1902.6588,E,25.83,64.70,180317,,*35
$GPGGA,230802.393,4728.5985,N,1902.6588,E,1,,,,,,,,*71
$GPRMC,230802.542,A,4728.6018,N,1902.6683,E,25.98,64.70,180317,,*33
$GPGGA,230802.542,4728.6018,N,1902.6683,E,1,,,,,,,,*7D
$GPRMC,230802.693,A,4728.6050,N,1902.6777,E,25.68,64.70,180317,,*35
$GPGGA,230802.693,4728.6050,N,1902.6777,E,1,,,,,,,,*74
$GPRMC,230802.843,A,4728.6082,N,1902.6871,E,25.80,64.70,180317,,*36
$GPGGA,230802.843,4728.6082,N,1902.6871,E,1,,,,,,,,*71
$GPRMC,230802.993,A,4728.6115,N,1902.6970,E,26.96,65.60,180317,,*31
$GPGGA,230802.993,4728.6115,N,1902.6970,E,1,,,,,,,,*72
$GPRMC,230803.142,A,4728.6146,N,1902.7065,E,25.69,65.76,180317,,*3A
$GPGGA,230803.142,4728.6146,N,1902.7065,E,1,,,,,,,,*7D
$GPRMC,230803.293,A,4728.6178,N,1902.7162,E,26.28,65.76,180317,,*38
$GPGGA,230803.293,4728.6178,N,1902.7162,E,1,,,,,,,,*79
$GPRMC,230803.443,A,4728.6209,N,1902.7257,E,25.79,65.76,180317,,*34
$GPGGA,230803.443,4728.6209,N,1902.7257,E,1,,,,,,,,*72
$GPRMC,230803.592,A,4728.6240,N,1902.7354,E,26.23,65.76,180317,,*3A
$GPGGA,230803.592,4728.6240,N,1902.7354,E,1,,,,,,,,*70
$GPRMC,230803.743,A,4728.6271,N,1902.7448,E,25.67,65.76,180317,,*3F
$GPGGA,230803.743,4728.6271,N,1902.7448,E,1,,,,,,,,*76
$GPRMC,230803.893,A,4728.6299,N,1902.7533,E,22.99,65.76,180317,,*30
$GPGGA,230803.893,4728.6299,N,1902.7533,E,1,,,,,,,,*7F
$GPRMC,230804.43,A,4728.6316,N,1902.7586,E,14.24,65.76,180317,,*09
$GPGGA,230804.43,4728.6316,N,1902.7586,E,1,,,,,,,,*45
$GPRMC,230804.194,A,4728.6326,N,1902.7615,E,08.02,65.76,180317,,*31
$GPGGA,230804.194,4728.6326,N,1902.7615,E,1,,,,,,,,*74
$GPRMC,230804.343,A,4728.6326,N,1902.7616,E,00.05,65.76,180317,,*35
$GPGGA,230804.343,4728.6326,N,1902.7616,E,1,,,,,,,,*7F
$GPRMC,230804.493,A,4728.6326,N,1902.7616,E,00.01,65.76,180317,,*3B
$GPGGA,230804.493,4728.6326,N,1902.7616,E,1,,,,,,,,*75
$GPRMC,230804.643,A,4728.6326,N,1902.7616,E,00.01,65.76,180317,,*34
$GPGGA,230804.643,4728.6326,N,1902.7616,E,1,,,,,,,,*7A
$GPRMC,230804.794,A,4728.6326,N,1902.7616,E,00.00,65.76,180317,,*3E
$GPGGA,230804.794,4728.6326,N,1902.7616,E,1,,,,,,,,*71
$GPRMC,230804.943,A,4728.6326,N,1902.7616,E,00.00,65.76,180317,,*3A
$GPGGA,230804.943,4728.6326,N,1902.7616,E,1,,,,,,,,*75
$GPRMC,230805.94,A,4728.6326,N,1902.7616,E,00.00,65.76,180317,,*08
$GPGGA,230805.94,4728.6326,N,1902.7616,E,1,,,,,,,,*47
$GPRMC,230805.244,A,4728.6326,N,1902.7616,E,00.00,65.76,180317,,*37
$GPGGA,230805.244,4728.6326,N,1902.7616,E,1,,,,,,,,*78
$GPRMC,230805.393,A,4728.6326,N,1902.7616,E,00.00,65.76,180317,,*3C
$GPGGA,230805.393,4728.6326,N,1902.7616,E,1,,,,,,,,*73
$GPRMC,230805.544,A,4728.6326,N,1902.7616,E,00.00,65.76,180317,,*30
$GPGGA,230805.544,4728.6326,N,1902.7616,E,1,,,,,,,,*7F
$GPRMC,230805.693,A,4728.6326,N,1902.7616,E,00.00,65.76,180317,,*39
$GPGGA,230805.693,4728.6326,N,1902.7616,E,1,,,,,,,,*76
$GPRMC,230805.844,A,4728.6326,N,1902.7616,E,00.00,65.76,180317,,*3D
$GPGGA,230805.844,4728.6326,N,1902.7616,E,1,,,,,,,,*72
$GPRMC,230805.993,A,4728.6326,N,1902.7616,E,00.00,65.76,180317,,*36
$GPGGA,230805.993,4728.6326,N,1902.7616,E,1,,,,,,,,*79
$GPRMC,230806.144,A,4728.6326,N,1902.7616,E,00.00,65.76,180317,,*37
$GPGGA,230806.144,4728.6326,N,1902.7616,E,1,,,,,,,,*78
$GPRMC,230806.295,A,4728.6326,N,1902.7616,E,00.00,65.76,180317,,*38
$GPGGA,230806.295,4728.6326,N,1902.7616,E,1,,,,,,,,*77
$GPRMC,230806.445,A,4728.6329,N,1902.7624,E,02.31,65.75,180317,,*3E
$GPGGA,230806.445,4728.6329,N,1902.7624,E,1,,,,,,,,*72
$GPRMC,230806.595,A,4728.6335,N,1902.7642,E,04.85,65.68,180317,,*3A
$GPGGA,230806.595,4728.6335,N,1902.7642,E,1,,,,,,,,*73
$GPRMC,230806.745,A,4728.6343,N,1902.7667,E,06.83,65.62,180317,,*3D
$GPGGA,230806.745,4728.6343,N,1902.7667,E,1,,,,,,,,*7A
$GPRMC,230806.895,A,4728.6354,N,1902.7701,E,09.07,65.44,180317,,*3F
$GPGGA,230806.895,4728.6354,N,1902.7701,E,1,,,,,,,,*7F
$GPRMC,230807.45,A,4728.6367,N,1902.7741,E,10.88,65.54,180317,,*01
$GPGGA,230807.45,4728.6367,N,1902.7741,E,1,,,,,,,,*4F
$GPRMC,230807.194,A,4728.6382,N,1902.7789,E,13.12,66.66,180317,,*31
$GPGGA,230807.194,4728.6382,N,1902.7789,E,1,,,,,,,,*7D
$GPRMC,230807.344,A,4728.6400,N,1902.7846,E,15.22,67.09,180317,,*32
$GPGGA,230807.344,4728.6400,N,1902.7846,E,1,,,,,,,,*73
$GPRMC,230807.495,A,4728.6419,N,1902.7910,E,17.11,67.09,180317,,*31
$GPGGA,230807.495,4728.6419,N,1902.7910,E,1,,,,,,,,*72
$GPRMC,230807.644,A,4728.6441,N,1902.7981,E,19.01,67.09,180317,,*35
$GPGGA,230807.644,4728.6441,N,1902.7981,E,1,,,,,,,,*79
$GPRMC,230807.794,A,4728.6466,N,1902.8062,E,21.67,67.09,180317,,*3C
$GPGGA,230807.794,4728.6466,N,1902.8062,E,1,,,,,,,,*7B
$GPRMC,230807.945,A,4728.6492,N,1902.8148,E,23.25,67.09,180317,,*38
$GPGGA,230807.945,4728.6492,N,1902.8148,E,1,,,,,,,,*7B
$GPRMC,230808.95,A,4728.6520,N,1902.8236,E,23.28,65.91,180317,,*0F
$GPGGA,230808.95,4728.6520,N,1902.8236,E,1,,,,,,,,*42
$GPRMC,230808.244,A,4728.6539,N,1902.8293,E,15.66,64.67,180317,,*31
$GPGGA,230808.244,4728.6539,N,1902.8293,E,1,,,,,,,,*7B
$GPRMC,230808.394,A,4728.6555,N,1902.8339,E,12.70,64.64,180317,,*35
$GPGGA,230808.394,4728.6555,N,1902.8339,E,1,,,,,,,,*7C
$GPRMC,230808.544,A,4728.6567,N,1902.8375,E,09.67,64.69,180317,,*36
$GPGGA,230808.544,4728.6567,N,1902.8375,E,1,,,,,,,,*7E
$GPRMC,230808.695,A,4728.6579,N,1902.8408,E,09.18,63.93,180317,,*31
$GPGGA,230808.695,4728.6579,N,1902.8408,E,1,,,,,,,,*73
$GPRMC,230808.844,A,4728.6594,N,1902.8450,E,11.54,63.03,180317,,*35
$GPGGA,230808.844,4728.6594,N,1902.8450,E,1,,,,,,,,*7F
$GPRMC,230808.994,A,4728.6612,N,1902.8497,E,13.10,63.09,180317,,*37
$GPGGA,230808.994,4728.6612,N,1902.8497,E,1,,,,,,,,*75
$GPRMC,230809.145,A,4728.6632,N,1902.8553,E,15.58,63.06,180317,,*3C
$GPGGA,230809.145,4728.6632,N,1902.8553,E,1,,,,,,,,*7B
$GPRMC,230809.295,A,4728.6655,N,1902.8617,E,17.61,63.06,180317,,*38
$GPGGA,230809.295,4728.6655,N,1902.8617,E,1,,,,,,,,*77
$GPRMC,230809.445,A,4728.6682,N,1902.8690,E,20.51,63.07,180317,,*30
$GPGGA,230809.445,4728.6682,N,1902.8690,E,1,,,,,,,,*79
$GPRMC,230809.594,A,4728.6713,N,1902.8774,E,23.21,63.08,180317,,*34
$GPGGA,230809.594,4728.6713,N,1902.8774,E,1,,,,,,,,*76
$GPRMC,230809.744,A,4728.6739,N,1902.8838,E,18.13,59.10,180317,,*3D
$GPGGA,230809.744,4728.6739,N,1902.8838,E,1,,,,,,,,*76
$GPRMC,230809.894,A,4728.6753,N,1902.8871,E,09.62,58.54,180317,,*39
$GPGGA,230809.894,4728.6753,N,1902.8871,E,1,,,,,,,,*75
$GPRMC,230810.44,A,4728.6756,N,1902.8876,E,01.45,58.54,180317,,*0B
$GPGGA,230810.44,4728.6756,N,1902.8876,E,1,,,,,,,,*4A
$GPRMC,230810.195,A,4728.6757,N,1902.8879,E,00.69,58.54,180317,,*37
$GPGGA,230810.195,4728.6757,N,1902.8879,E,1,,,,,,,,*79
$GPRMC,230810.345,A,4728.6757,N,1902.8879,E,00.13,58.53,180317,,*32
$GPGGA,230810.345,4728.6757,N,1902.8879,E,1,,,,,,,,*76
$GPRMC,230810.495,A,4728.6757,N,1902.8879,E,00.02,58.53,180317,,*38
$GPGGA,230810.495,4728.6757,N,1902.8879,E,1,,,,,,,,*7C
$GPRMC,230810.646,A,4728.6757,N,1902.8879,E,00.01,58.53,180317,,*37
$GPGGA,230810.646,4728.6757,N,1902.8879,E,1,,,,,,,,*70
$GPRMC,230810.796,A,4728.6757,N,1902.8879,E,00.00,58.53,180317,,*3A
$GPGGA,230810.796,4728.6757,N,1902.8879,E,1,,,,,,,,*7C
$GPRMC,230810.946,A,4728.6757,N,1902.8879,E,00.00,58.53,180317,,*39
$GPGGA,230810.946,4728.6757,N,1902.8879,E,1,,,,,,,,*7F
$GPRMC,230811.96,A,4728.6757,N,1902.8879,E,00.00,58.53,180317,,*0C
$GPGGA,230811.96,4728.6757,N,1902.8879,E,1,,,,,,,,*4A
$GPRMC,230811.247,A,4728.6757,N,1902.8879,E,00.00,58.53,180317,,*32
$GPGGA,230811.247,4728.6757,N,1902.8879,E,1,,,,,,,,*74
$GPRMC,230811.397,A,4728.6757,N,1902.8879,E,00.00,58.53,180317,,*3E
$GPGGA,230811.397,4728.6757,N,1902.8879,E,1,,,,,,,,*78
$GPRMC,230811.547,A,4728.6757,N,1902.8879,E,00.00,58.53,180317,,*35
$GPGGA,230811.547,4728.6757,N,1902.8879,E,1,,,,,,,,*73
$GPRMC,230811.696,A,4728.6757,N,1902.8879,E,00.00,58.53,180317,,*3A
$GPGGA,230811.696,4728.6757,N,1902.8879,E,1,,,,,,,,*7C
$GPRMC,230811.846,A,4728.6757,N,1902.8879,E,00.00,58.53,180317,,*39
$GPGGA,230811.846,4728.6757,N,1902.8879,E,1,,,,,,,,*7F
$GPRMC,230811.996,A,4728.6757,N,1902.8879,E,00.00,58.53,180317,,*35
$GPGGA,230811.996,4728.6757,N,1902.8879,E,1,,,,,,,,*73
$GPRMC,230812.146,A,4728.6757,N,1902.8879,E,00.00,58.53,180317,,*33
$GPGGA,230812.146,4728.6757,N,1902.8879,E,1,,,,,,,,*75
$GPRMC,230812.296,A,4728.6757,N,1902.8879,E,00.00,58.53,180317,,*3D
$GPGGA,230812.296,4728.6757,N,1902.8879,E,1,,,,,,,,*7B
$GPRMC,230812.446,A,4728.6757,N,1902.8879,E,00.00,58.53,180317,,*36
$GPGGA,230812.446,4728.6757,N,1902.8879,E,1,,,,,,,,*70
$GPRMC,230812.597,A,4728.6757,N,1902.8879,E,00.00,58.53,180317,,*3B
$GPGGA,230812.597,4728.6757,N,1902.8879,E,1,,,,,,,,*7D
$GPRMC,230812.746,A,4728.6757,N,1902.8879,E,00.00,58.53,180317,,*35
$GPGGA,230812.746,4728.6757,N,1902.8879,E,1,,,,,,,,*73
$GPRMC,230812.897,A,4728.6757,N,1902.8879,E,00.00,58.53,180317,,*36
$GPGGA,230812.897,4728.6757,N,1902.8879,E,1,,,,,,,,*70
$GPRMC,230813.47,A,4728.6757,N,1902.8879,E,00.00,58.53,180317,,*02
$GPGGA,230813.47,4728.6757,N,1902.8879,E,1,,,,,,,,*44
$GPRMC,230813.197,A,4728.6760,N,1902.8886,E,02.08,58.55,180317,,*36
$GPGGA,230813.197,4728.6760,N,1902.8886,E,1,,,,,,,,*7C
$GPRMC,230813.348,A,4728.6766,N,1902.8900,E,03.97,59.13,180317,,*3B
$GPGGA,230813.348,4728.6766,N,1902.8900,E,1,,,,,,,,*75
$GPRMC,230813.497,A,4728.6774,N,1902.8919,E,05.46,59.94,180317,,*30
$GPGGA,230813.497,4728.6774,N,1902.8919,E,1,,,,,,,,*7B
$GPRMC,230813.648,A,4728.6784,N,1902.8943,E,06.99,59.96,180317,,*33
$GPGGA,230813.648,4728.6784,N,1902.8943,E,1,,,,,,,,*7B
$GPRMC,230813.798,A,4728.6797,N,1902.8975,E,08.98,59.96,180317,,*37
$GPGGA,230813.798,4728.6797,N,1902.8975,E,1,,,,,,,,*70
$GPRMC,230813.948,A,4728.6812,N,1902.9012,E,10.55,60.23,180317,,*33
$GPGGA,230813.948,4728.6812,N,1902.9012,E,1,,,,,,,,*78
$GPRMC,230814.98,A,4728.6829,N,1902.9054,E,12.17,60.31,180317,,*0D
$GPGGA,230814.98,4728.6829,N,1902.9054,E,1,,,,,,,,*41
$GPRMC,230814.248,A,4728.6850,N,1902.9105,E,14.48,60.27,180317,,*32
$GPGGA,230814.248,4728.6850,N,1902.9105,E,1,,,,,,,,*75
$GPRMC,230814.397,A,4728.6874,N,1902.9164,E,16.68,60.27,180317,,*30
$GPGGA,230814.397,4728.6874,N,1902.9164,E,1,,,,,,,,*77
$GPRMC,230814.548,A,4728.6902,N,1902.9230,E,19.10,60.27,180317,,*36
$GPGGA,230814.548,4728.6902,N,1902.9230,E,1,,,,,,,,*71
$GPRMC,230814.698,A,4728.6933,N,1902.9306,E,21.50,60.27,180317,,*31
$GPGGA,230814.698,4728.6933,N,1902.9306,E,1,,,,,,,,*79
$GPRMC,230814.848,A,4728.6966,N,1902.9387,E,23.30,60.27,180317,,*3F
$GPGGA,230814.848,4728.6966,N,1902.9387,E,1,,,,,,,,*73
$GPRMC,230814.997,A,4728.7002,N,1902.9476,E,25.17,60.27,180317,,*3C
$GPGGA,230814.997,4728.7002,N,1902.9476,E,1,,,,,,,,*73
$GPRMC,230815.147,A,4728.7040,N,1902.9569,E,26.51,60.27,180317,,*30
$GPGGA,230815.147,4728.7040,N,1902.9569,E,1,,,,,,,,*7E
$GPRMC,230815.298,A,4728.7078,N,1902.9661,E,26.27,60.27,180317,,*30
$GPGGA,230815.298,4728.7078,N,1902.9661,E,1,,,,,,,,*7F
$GPRMC,230815.448,A,4728.7107,N,1902.9732,E,20.38,60.28,180317,,*32
$GPGGA,230815.448,4728.7107,N,1902.9732,E,1,,,,,,,,*7A
$GPRMC,230815.597,A,4728.7124,N,1902.9773,E,11.63,60.26,180317,,*37
$GPGGA,230815.597,4728.7124,N,1902.9773,E,1,,,,,,,,*7D
$GPRMC,230815.748,A,4728.7128,N,1902.9783,E,02.89,60.24,180317,,*30
$GPGGA,230815.748,4728.7128,N,1902.9783,E,1,,,,,,,,*7E
$GPRMC,230815.898,A,4728.7129,N,1902.9784,E,00.32,60.24,180317,,*36
$GPGGA,230815.898,4728.7129,N,1902.9784,E,1,,,,,,,,*7A
$GPRMC,230816.48,A,4728.7129,N,1902.9784,E,00.03,60.24,180317,,*02
$GPGGA,230816.48,4728.7129,N,1902.9784,E,1,,,,,,,,*4C
$GPRMC,230816.199,A,4728.7129,N,1902.9784,E,00.01,60.24,180317,,*3D
$GPGGA,230816.199,4728.7129,N,1902.9784,E,1,,,,,,,,*71
$GPRMC,230816.349,A,4728.7129,N,1902.9784,E,00.00,60.24,180317,,*33
$GPGGA,230816.349,4728.7129,N,1902.9784,E,1,,,,,,,,*7E
$GPRMC,230816.500,A,4728.7129,N,1902.9784,E,00.00,60.24,180317,,*38
$GPGGA,230816.500,4728.7129,N,1902.9784,E,1,,,,,,,,*75
$GPRMC,230816.650,A,4728.7129,N,1902.9784,E,00.00,60.24,180317,,*3E
$GPGGA,230816.650,4728.7129,N,1902.9784,E,1,,,,,,,,*73
$GPRMC,230816.799,A,4728.7129,N,1902.9784,E,00.00,60.24,180317,,*3A
$GPGGA,230816.799,4728.7129,N,1902.9784,E,1,,,,,,,,*77
$GPRMC,230816.949,A,4728.7129,N,1902.9784,E,00.00,60.24,180317,,*39
$GPGGA,230816.949,4728.7129,N,1902.9784,E,1,,,,,,,,*74
$GPRMC,230817.100,A,4728.7129,N,1902.9784,E,00.00,60.24,180317,,*3D
$GPGGA,230817.100,4728.7129,N,1902.9784,E,1,,,,,,,,*70
$GPRMC,230817.249,A,4728.7129,N,1902.9784,E,00.00,60.24,180317,,*33
$GPGGA,230817.249,4728.7129,N,1902.9784,E,1,,,,,,,,*7E
$GPRMC,230817.400,A,4728.7129,N,1902.9784,E,00.00,60.24,180317,,*38
$GPGGA,230817.400,4728.7129,N,1902.9784,E,1,,,,,,,,*75
$GPRMC,230817.550,A,4728.7129,N,1902.9784,E,00.00,60.24,180317,,*3C
$GPGGA,230817.550,4728.7129,N,1902.9784,E,1,,,,,,,,*71
$GPRMC,230817.700,A,4728.7129,N,1902.9784,E,00.00,60.24,180317,,*3B
$GPGGA,230817.700,4728.7129,N,1902.9784,E,1,,,,,,,,*76
$GPRMC,230817.850,A,4728.7129,N,1902.9784,E,00.00,60.24,180317,,*31
$GPGGA,230817.850,4728.7129,N,1902.9784,E,1,,,,,,,,*7C
$GPRMC,230818.01,A,4728.7129,N,1902.9784,E,00.00,60.24,180317,,*02
$GPGGA,230818.01,4728.7129,N,1902.9784,E,1,,,,,,,,*4F
$GPRMC,230818.150,A,4728.7129,N,1902.9784,E,00.00,60.24,180317,,*37
$GPGGA,230818.150,4728.7129,N,1902.9784,E,1,,,,,,,,*7A
$GPRMC,230818.300,A,4728.7129,N,1902.9784,E,00.00,60.24,180317,,*30
$GPGGA,230818.300,4728.7129,N,1902.9784,E,1,,,,,,,,*7D
$GPRMC,230818.451,A,4728.7129,N,1902.9784,E,00.00,60.24,180317,,*33
$GPGGA,230818.451,4728.7129,N,1902.9784,E,1,,,,,,,,*7E
$GPRMC,230818.600,A,4728.7129,N,1902.9784,E,00.00,60.24,180317,,*35
$GPGGA,230818.600,4728.7129,N,1902.9784,E,1,,,,,,,,*78
$GPRMC,230818.751,A,4728.7129,N,1902.9784,E,00.00,60.24,180317,,*30
$GPGGA,230818.751,4728.7129,N,1902.9784,E,1,,,,,,,,*7D
$GPRMC,230818.900,A,4728.7129,N,1902.9784,E,00.00,60.24,180317,,*3A
$GPGGA,230818.900,4728.7129,N,1902.9784,E,1,,,,,,,,*77
$GPRMC,230819.50,A,4728.7129,N,1902.9784,E,00.00,60.24,180317,,*07
$GPGGA,230819.50,4728.7129,N,1902.9784,E,1,,,,,,,,*4A
$GPRMC,230819.201,A,4728.7129,N,1902.9784,E,00.00,60.24,180317,,*31
$GPGGA,230819.201,4728.7129,N,1902.9784,E,1,,,,,,,,*7C
$GPRMC,230819.350,A,4728.7129,N,1902.9784,E,00.00,60.24,180317,,*34
$GPGGA,230819.350,4728.7129,N,1902.9784,E,1,,,,,,,,*79
$GPRMC,230819.500,A,4728.7129,N,1902.9784,E,00.00,60.24,180317,,*37
$GPGGA,230819.500,4728.7129,N,1902.9784,E,1,,,,,,,,*7A
$GPRMC,230819.650,A,4728.7129,N,1902.9784,E,00.00,60.24,180317,,*31
$GPGGA,230819.650,4728.7129,N,1902.9784,E,1,,,,,,,,*7C
$GPRMC,230819.801,A,4728.7129,N,1902.9784,E,00.00,60.24,180317,,*3B
$GPGGA,230819.801,4728.7129,N,1902.9784,E,1,,,,,,,,*76
$GPRMC,230819.951,A,4728.7132,N,1902.9793,E,02.59,60.63,180317,,*3E
$GPGGA,230819.951,4728.7132,N,1902.9793,E,1,,,,,,,,*7E
$GPRMC,230820.102,A,4728.7136,N,1902.9810,E,04.38,67.12,180317,,*3A
$GPGGA,230820.102,4728.7136,N,1902.9810,E,1,,,,,,,,*7A
$GPRMC,230820.251,A,4728.7125,N,1902.9834,E,07.08,112.99,180317,,*0B
$GPGGA,230820.251,4728.7125,N,1902.9834,E,1,,,,,,,,*7B
$GPRMC,230820.402,A,4728.7111,N,1902.9864,E,08.85,127.23,180317,,*04
$GPGGA,230820.402,4728.7111,N,1902.9864,E,1,,,,,,,,*79
$GPRMC,230820.551,A,4728.7094,N,1902.9900,E,10.78,125.19,180317,,*0C
$GPGGA,230820.551,4728.7094,N,1902.9900,E,1,,,,,,,,*71
$GPRMC,230820.701,A,4728.7075,N,1902.9943,E,12.45,125.19,180317,,*0F
$GPGGA,230820.701,4728.7075,N,1902.9943,E,1,,,,,,,,*7E
$GPRMC,230820.852,A,4728.7052,N,1902.9994,E,15.18,125.19,180317,,*06
$GPGGA,230820.852,4728.7052,N,1902.9994,E,1,,,,,,,,*78
$GPRMC,230821.03,A,4728.7026,N,1903.0051,E,16.71,125.19,180317,,*3C
$GPGGA,230821.03,4728.7026,N,1903.0051,E,1,,,,,,,,*4E
$GPRMC,230821.153,A,4728.6996,N,1903.0117,E,19.25,125.19,180317,,*06
$GPGGA,230821.153,4728.6996,N,1903.0117,E,1,,,,,,,,*7A
$GPRMC,230821.302,A,4728.6962,N,1903.0192,E,22.01,124.87,180317,,*0E
$GPGGA,230821.302,4728.6962,N,1903.0192,E,1,,,,,,,,*7A
$GPRMC,230821.453,A,4728.6927,N,1903.0276,E,24.29,122.87,180317,,*0F
$GPGGA,230821.453,4728.6927,N,1903.0276,E,1,,,,,,,,*71
$GPRMC,230821.602,A,4728.6890,N,1903.0366,E,25.67,122.87,180317,,*0F
$GPGGA,230821.602,4728.6890,N,1903.0366,E,1,,,,,,,,*7A
$GPRMC,230821.752,A,4728.6851,N,1903.0460,E,26.84,122.87,180317,,*09
$GPGGA,230821.752,4728.6851,N,1903.0460,E,1,,,,,,,,*72
$GPRMC,230821.903,A,4728.6812,N,1903.0553,E,26.51,122.87,180317,,*0D
$GPGGA,230821.903,4728.6812,N,1903.0553,E,1,,,,,,,,*7E
$GPRMC,230822.53,A,4728.6774,N,1903.0645,E,26.54,122.51,180317,,*37
$GPGGA,230822.53,4728.6774,N,1903.0645,E,1,,,,,,,,*4A
$GPRMC,230822.202,A,4728.6746,N,1903.0742,E,25.80,111.99,180317,,*08
$GPGGA,230822.202,4728.6746,N,1903.0742,E,1,,,,,,,,*7B
$GPRMC,230822.353,A,4728.6720,N,1903.0844,E,26.49,111.97,180317,,*0C
$GPGGA,230822.353,4728.6720,N,1903.0844,E,1,,,,,,,,*77
$GPRMC,230822.502,A,4728.6695,N,1903.0943,E,25.69,111.97,180317,,*06
$GPGGA,230822.502,4728.6695,N,1903.0943,E,1,,,,,,,,*7C
$GPRMC,230822.653,A,4728.6670,N,1903.1042,E,25.89,111.97,180317,,*0D
$GPGGA,230822.653,4728.6670,N,1903.1042,E,1,,,,,,,,*79
$GPRMC,230822.802,A,4728.6644,N,1903.1145,E,26.94,111.97,180317,,*09
$GPGGA,230822.802,4728.6644,N,1903.1145,E,1,,,,,,,,*72
$GPRMC,230822.952,A,4728.6618,N,1903.1248,E,26.86,111.92,180317,,*0C
$GPGGA,230822.952,4728.6618,N,1903.1248,E,1,,,,,,,,*71
$GPRMC,230823.103,A,4728.6592,N,1903.1351,E,26.71,111.36,180317,,*0F
$GPGGA,230823.103,4728.6592,N,1903.1351,E,1,,,,,,,,*74
$GPRMC,230823.252,A,4728.6571,N,1903.1437,E,22.36,111.36,180317,,*05
$GPGGA,230823.252,4728.6571,N,1903.1437,E,1,,,,,,,,*79
$GPRMC,230823.403,A,4728.6557,N,1903.1496,E,15.22,111.36,180317,,*09
$GPGGA,230823.403,4728.6557,N,1903.1496,E,1,,,,,,,,*74
$GPRMC,230823.552,A,4728.6540,N,1903.1564,E,17.66,110.38,180317,,*0B
$GPGGA,230823.552,4728.6540,N,1903.1564,E,1,,,,,,,,*7B
$GPRMC,230823.703,A,4728.6523,N,1903.1641,E,19.66,109.54,180317,,*00
$GPGGA,230823.703,4728.6523,N,1903.1641,E,1,,,,,,,,*7C
$GPRMC,230823.853,A,4728.6504,N,1903.1726,E,21.96,109.54,180317,,*0B
$GPGGA,230823.853,4728.6504,N,1903.1726,E,1,,,,,,,,*73
$GPRMC,230824.02,A,4728.6483,N,1903.1822,E,24.75,109.54,180317,,*3D
$GPGGA,230824.02,4728.6483,N,1903.1822,E,1,,,,,,,,*4D
$GPRMC,230824.152,A,4728.6460,N,1903.1926,E,26.61,109.54,180317,,*06
$GPGGA,230824.152,4728.6460,N,1903.1926,E,1,,,,,,,,*71
$GPRMC,230824.303,A,4728.6440,N,1903.2019,E,23.84,109.54,180317,,*0A
$GPGGA,230824.303,4728.6440,N,1903.2019,E,1,,,,,,,,*73
$GPRMC,230824.453,A,4728.6427,N,1903.2078,E,15.09,109.54,180317,,*0E
$GPGGA,230824.453,4728.6427,N,1903.2078,E,1,,,,,,,,*77
$GPRMC,230824.602,A,4728.6413,N,1903.2145,E,17.26,106.06,180317,,*07
$GPGGA,230824.602,4728.6413,N,1903.2145,E,1,,,,,,,,*79
$GPRMC,230824.752,A,4728.6418,N,1903.2225,E,19.51,84.22,180317,,*3E
$GPGGA,230824.752,4728.6418,N,1903.2225,E,1,,,,,,,,*73
$GPRMC,230824.903,A,4728.6426,N,1903.2312,E,21.42,84.21,180317,,*36
$GPGGA,230824.903,4728.6426,N,1903.2312,E,1,,,,,,,,*71
$GPRMC,230825.52,A,4728.6434,N,1903.2410,E,24.22,84.21,180317,,*0F
$GPGGA,230825.52,4728.6434,N,1903.2410,E,1,,,,,,,,*4B
$GPRMC,230825.202,A,4728.6443,N,1903.2515,E,25.75,84.21,180317,,*3F
$GPGGA,230825.202,4728.6443,N,1903.2515,E,1,,,,,,,,*78
$GPRMC,230825.353,A,4728.6453,N,1903.2624,E,26.90,84.24,180317,,*37
$GPGGA,230825.353,4728.6453,N,1903.2624,E,1,,,,,,,,*7D
$GPRMC,230825.503,A,4728.6460,N,1903.2710,E,21.06,84.24,180317,,*3A
$GPGGA,230825.503,4728.6460,N,1903.2710,E,1,,,,,,,,*78
$GPRMC,230825.652,A,4728.6465,N,1903.2764,E,13.25,84.24,180317,,*3B
$GPGGA,230825.652,4728.6465,N,1903.2764,E,1,,,,,,,,*79
$GPRMC,230825.802,A,4728.6470,N,1903.2826,E,15.32,83.53,180317,,*3A
$GPGGA,230825.802,4728.6470,N,1903.2826,E,1,,,,,,,,*7F
$GPRMC,230825.952,A,4728.6477,N,1903.2898,E,17.96,82.89,180317,,*36
$GPGGA,230825.952,4728.6477,N,1903.2898,E,1,,,,,,,,*79
$GPRMC,230826.103,A,4728.6486,N,1903.2979,E,19.83,82.85,180317,,*3F
$GPGGA,230826.103,4728.6486,N,1903.2979,E,1,,,,,,,,*76
$GPRMC,230826.253,A,4728.6495,N,1903.3066,E,21.53,82.85,180317,,*3B
$GPGGA,230826.253,4728.6495,N,1903.3066,E,1,,,,,,,,*74
$GPRMC,230826.402,A,4728.6505,N,1903.3163,E,24.08,82.85,180317,,*3E
$GPGGA,230826.402,4728.6505,N,1903.3163,E,1,,,,,,,,*7A
$GPRMC,230826.553,A,4728.6516,N,1903.3272,E,26.90,82.85,180317,,*39
$GPGGA,230826.553,4728.6516,N,1903.3272,E,1,,,,,,,,*7E
$GPRMC,230826.702,A,4728.6526,N,1903.3376,E,25.69,82.85,180317,,*3C
$GPGGA,230826.702,4728.6526,N,1903.3376,E,1,,,,,,,,*7E
$GPRMC,230826.852,A,4728.6535,N,1903.3463,E,21.37,82.85,180317,,*38
$GPGGA,230826.852,4728.6535,N,1903.3463,E,1,,,,,,,,*75
$GPRMC,230827.03,A,4728.6541,N,1903.3516,E,13.19,82.85,180317,,*08
$GPGGA,230827.03,4728.6541,N,1903.3516,E,1,,,,,,,,*48
$GPRMC,230827.153,A,4728.6529,N,1903.3566,E,15.27,129.23,180317,,*02
$GPGGA,230827.153,4728.6529,N,1903.3566,E,1,,,,,,,,*75
$GPRMC,230827.302,A,4728.6478,N,1903.3568,E,18.16,180.68,180317,,*0C
$GPGGA,230827.302,4728.6478,N,1903.3568,E,1,,,,,,,,*78
$GPRMC,230827.452,A,4728.6422,N,1903.3569,E,20.40,180.68,180317,,*08
$GPGGA,230827.452,4728.6422,N,1903.3569,E,1,,,,,,,,*74
$GPRMC,230827.603,A,4728.6361,N,1903.3570,E,21.92,180.68,180317,,*08
$GPGGA,230827.603,4728.6361,N,1903.3570,E,1,,,,,,,,*7A
$GPRMC,230827.754,A,4728.6296,N,1903.3572,E,23.45,180.68,180317,,*08
$GPGGA,230827.754,4728.6296,N,1903.3572,E,1,,,,,,,,*72
$GPRMC,230827.903,A,4728.6225,N,1903.3573,E,25.41,180.68,180317,,*0F
$GPGGA,230827.903,4728.6225,N,1903.3573,E,1,,,,,,,,*77
$GPRMC,230828.54,A,4728.6152,N,1903.3574,E,26.50,180.68,180317,,*3C
$GPGGA,230828.54,4728.6152,N,1903.3574,E,1,,,,,,,,*47
$GPRMC,230828.205,A,4728.6079,N,1903.3578,E,26.25,179.56,180317,,*07
$GPGGA,230828.205,4728.6079,N,1903.3578,E,1,,,,,,,,*75
$GPRMC,230828.354,A,4728.6007,N,1903.3582,E,25.71,179.06,180317,,*09
$GPGGA,230828.354,4728.6007,N,1903.3582,E,1,,,,,,,,*7C
$GPRMC,230828.504,A,4728.6010,N,1903.3660,E,26.01,56.98,180317,,*3C
$GPGGA,230828.504,4728.6010,N,1903.3660,E,1,,,,,,,,*76
$GPRMC,230828.655,A,4728.6054,N,1903.3747,E,26.37,55.16,180317,,*3F
$GPGGA,230828.655,4728.6054,N,1903.3747,E,1,,,,,,,,*75
$GPRMC,230828.805,A,4728.6097,N,1903.3833,E,26.29,55.16,180317,,*38
$GPGGA,230828.805,4728.6097,N,1903.3833,E,1,,,,,,,,*7D
$GPRMC,230828.954,A,4728.6139,N,1903.3918,E,25.55,55.16,180317,,*38
$GPGGA,230828.954,4728.6139,N,1903.3918,E,1,,,,,,,,*75
$GPRMC,230829.105,A,4728.6181,N,1903.4003,E,25.65,55.16,180317,,*31
$GPGGA,230829.105,4728.6181,N,1903.4003,E,1,,,,,,,,*7F
$GPRMC,230829.256,A,4728.6223,N,1903.4088,E,25.83,55.16,180317,,*34
$GPGGA,230829.256,4728.6223,N,1903.4088,E,1,,,,,,,,*72
$GPRMC,230829.406,A,4728.6267,N,1903.4175,E,26.25,55.16,180317,,*3B
$GPGGA,230829.406,4728.6267,N,1903.4175,E,1,,,,,,,,*72
$GPRMC,230829.555,A,4728.6309,N,1903.4259,E,25.63,55.18,180317,,*37
$GPGGA,230829.555,4728.6309,N,1903.4259,E,1,,,,,,,,*71
$GPRMC,230829.705,A,4728.6353,N,1903.4348,E,26.89,55.39,180317,,*3A
$GPGGA,230829.705,4728.6353,N,1903.4348,E,1,,,,,,,,*78
$GPRMC,230829.856,A,4728.6396,N,1903.4436,E,26.45,55.32,180317,,*3F
$GPGGA,230829.856,4728.6396,N,1903.4436,E,1,,,,,,,,*76
$GPRMC,230830.06,A,4728.6439,N,1903.4522,E,26.17,55.11,180317,,*0A
$GPGGA,230830.06,4728.6439,N,1903.4522,E,1,,,,,,,,*45
$GPRMC,230830.155,A,4728.6482,N,1903.4609,E,26.41,55.11,180317,,*34
$GPGGA,230830.155,4728.6482,N,1903.4609,E,1,,,,,,,,*78
$GPRMC,230830.306,A,4728.6525,N,1903.4695,E,26.10,55.11,180317,,*3D
$GPGGA,230830.306,4728.6525,N,1903.4695,E,1,,,,,,,,*75
$GPRMC,230830.457,A,4728.6569,N,1903.4783,E,26.58,55.11,180317,,*3C
$GPGGA,230830.457,4728.6569,N,1903.4783,E,1,,,,,,,,*78
$GPRMC,230830.607,A,4728.6611,N,1903.4868,E,25.63,55.59,180317,,*3A
$GPGGA,230830.607,4728.6611,N,1903.4868,E,1,,,,,,,,*79
$GPRMC,230830.756,A,4728.6653,N,1903.4956,E,26.34,55.77,180317,,*38
$GPGGA,230830.756,4728.6653,N,1903.4956,E,1,,,,,,,,*76
$GPRMC,230830.907,A,4728.6696,N,1903.5043,E,26.39,55.66,180317,,*3A
$GPGGA,230830.907,4728.6696,N,1903.5043,E,1,,,,,,,,*79
$GPRMC,230831.56,A,4728.6738,N,1903.5129,E,25.88,55.58,180317,,*0A
$GPGGA,230831.56,4728.6738,N,1903.5129,E,1,,,,,,,,*4D
$GPRMC,230831.207,A,4728.6782,N,1903.5218,E,26.61,55.62,180317,,*31
$GPGGA,230831.207,4728.6782,N,1903.5218,E,1,,,,,,,,*7B
$GPRMC,230831.358,A,4728.6824,N,1903.5304,E,26.15,55.31,180317,,*30
$GPGGA,230831.358,4728.6824,N,1903.5304,E,1,,,,,,,,*7F
$GPRMC,230831.508,A,4728.6868,N,1903.5393,E,26.86,55.31,180317,,*3F
$GPGGA,230831.508,4728.6868,N,1903.5393,E,1,,,,,,,,*7A
$GPRMC,230831.657,A,4728.6912,N,1903.5481,E,26.45,55.31,180317,,*31
$GPGGA,230831.657,4728.6912,N,1903.5481,E,1,,,,,,,,*7B
$GPRMC,230831.807,A,4728.6955,N,1903.5568,E,26.29,55.31,180317,,*35
$GPGGA,230831.807,4728.6955,N,1903.5568,E,1,,,,,,,,*75
$GPRMC,230831.957,A,4728.6997,N,1903.5654,E,26.09,56.00,180317,,*30
$GPGGA,230831.957,4728.6997,N,1903.5654,E,1,,,,,,,,*73
$GPRMC,230832.107,A,4728.7039,N,1903.5743,E,26.32,56.55,180317,,*3D
$GPGGA,230832.107,4728.7039,N,1903.5743,E,1,,,,,,,,*76
$GPRMC,230832.257,A,4728.7081,N,1903.5829,E,25.92,55.60,180317,,*37
$GPGGA,230832.257,4728.7081,N,1903.5829,E,1,,,,,,,,*70
$GPRMC,230832.408,A,4728.7115,N,1903.5900,E,21.30,55.62,180317,,*33
$GPGGA,230832.408,4728.7115,N,1903.5900,E,1,,,,,,,,*7A
$GPRMC,230832.557,A,4728.7136,N,1903.5941,E,12.55,55.03,180317,,*38
$GPGGA,230832.557,4728.7136,N,1903.5941,E,1,,,,,,,,*75
$GPRMC,230832.707,A,4728.7155,N,1903.5992,E,14.46,66.17,180317,,*35
$GPGGA,230832.707,4728.7155,N,1903.5992,E,1,,,,,,,,*79
$GPRMC,230832.858,A,4728.7144,N,1903.6022,E,08.80,118.81,180317,,*01
$GPGGA,230832.858,4728.7144,N,1903.6022,E,1,,,,,,,,*7D
$GPRMC,230833.07,A,4728.7166,N,1903.6024,E,10.67,358.38,180317,,*30
$GPGGA,230833.07,4728.7166,N,1903.6024,E,1,,,,,,,,*48
$GPRMC,230833.157,A,4728.7197,N,1903.5996,E,12.83,329.73,180317,,*08
$GPGGA,230833.157,4728.7197,N,1903.5996,E,1,,,,,,,,*71
$GPRMC,230833.308,A,4728.7234,N,1903.5972,E,14.68,341.05,180317,,*0C
$GPGGA,230833.308,4728.7234,N,1903.5972,E,1,,,,,,,,*79
$GPRMC,230833.457,A,4728.7278,N,1903.5944,E,17.44,336.82,180317,,*0E
$GPGGA,230833.457,4728.7278,N,1903.5944,E,1,,,,,,,,*79
$GPRMC,230833.608,A,4728.7328,N,1903.5910,E,19.76,336.82,180317,,*0C
$GPGGA,230833.608,4728.7328,N,1903.5910,E,1,,,,,,,,*74
$GPRMC,230833.757,A,4728.7382,N,1903.5865,E,22.49,330.04,180317,,*08
$GPGGA,230833.757,4728.7382,N,1903.5865,E,1,,,,,,,,*7C
$GPRMC,230833.907,A,4728.7442,N,1903.5810,E,25.39,330.04,180317,,*0A
$GPGGA,230833.907,4728.7442,N,1903.5810,E,1,,,,,,,,*7E
$GPRMC,230834.58,A,4728.7504,N,1903.5755,E,26.06,330.04,180317,,*3C
$GPGGA,230834.58,4728.7504,N,1903.5755,E,1,,,,,,,,*47
$GPRMC,230834.208,A,4728.7566,N,1903.5702,E,25.67,332.18,180317,,*06
$GPGGA,230834.208,4728.7566,N,1903.5702,E,1,,,,,,,,*76
$GPRMC,230834.357,A,4728.7631,N,1903.5653,E,26.35,335.02,180317,,*01
$GPGGA,230834.357,4728.7631,N,1903.5653,E,1,,,,,,,,*79
$GPRMC,230834.507,A,4728.7691,N,1903.5609,E,24.29,335.02,180317,,*08
$GPGGA,230834.507,4728.7691,N,1903.5609,E,1,,,,,,,,*7F
$GPRMC,230834.658,A,4728.7734,N,1903.5578,E,17.16,335.02,180317,,*06
$GPGGA,230834.658,4728.7734,N,1903.5578,E,1,,,,,,,,*7D
$GPRMC,230834.808,A,4728.7755,N,1903.5563,E,08.41,335.02,180317,,*0C
$GPGGA,230834.808,4728.7755,N,1903.5563,E,1,,,,,,,,*7B
$GPRMC,230834.958,A,4728.7756,N,1903.5562,E,00.21,335.02,180317,,*04
$GPGGA,230834.958,4728.7756,N,1903.5562,E,1,,,,,,,,*7D
$GPRMC,230835.108,A,4728.7756,N,1903.5562,E,00.01,335.02,180317,,*0A
$GPGGA,230835.108,4728.7756,N,1903.5562,E,1,,,,,,,,*71
$GPRMC,230835.259,A,4728.7756,N,1903.5562,E,00.00,335.02,180317,,*0C
$GPGGA,230835.259,4728.7756,N,1903.5562,E,1,,,,,,,,*76
$GPRMC,230835.408,A,4728.7756,N,1903.5562,E,00.00,335.02,180317,,*0E
$GPGGA,230835.408,4728.7756,N,1903.5562,E,1,,,,,,,,*74
$GPRMC,230835.558,A,4728.7756,N,1903.5562,E,00.00,335.02,180317,,*0A
$GPGGA,230835.558,4728.7756,N,1903.5562,E,1,,,,,,,,*70
$GPRMC,230835.708,A,4728.7756,N,1903.5562,E,00.00,335.02,180317,,*0D
$GPGGA,230835.708,4728.7756,N,1903.5562,E,1,,,,,,,,*77
$GPRMC,230835.858,A,4728.7756,N,1903.5562,E,00.00,335.02,180317,,*07
$GPGGA,230835.858,4728.7756,N,1903.5562,E,1,,,,,,,,*7D
$GPRMC,230836.09,A,4728.7756,N,1903.5562,E,00.00,335.02,180317,,*38
$GPGGA,230836.09,4728.7756,N,1903.5562,E,1,,,,,,,,*42
$GPRMC,230836.158,A,4728.7756,N,1903.5562,E,00.00,335.02,180317,,*0D
$GPGGA,230836.158,4728.7756,N,1903.5562,E,1,,,,,,,,*77
$GPRMC,230836.309,A,4728.7756,N,1903.5562,E,00.00,335.02,180317,,*0B
$GPGGA,230836.309,4728.7756,N,1903.5562,E,1,,,,,,,,*71
$GPRMC,230836.458,A,4728.7756,N,1903.5562,E,00.00,335.02,180317,,*08
$GPGGA,230836.458,4728.7756,N,1903.5562,E,1,,,,,,,,*72
$GPRMC,230836.608,A,4728.7756,N,1903.5562,E,00.00,335.02,180317,,*0F
$GPGGA,230836.608,4728.7756,N,1903.5562,E,1,,,,,,,,*75
$GPRMC,230836.759,A,4728.7756,N,1903.5562,E,00.00,335.02,180317,,*0A
$GPGGA,230836.759,4728.7756,N,1903.5562,E,1,,,,,,,,*70
$GPRMC,230836.910,A,4728.7756,N,1903.5562,E,00.00,335.02,180317,,*09
$GPGGA,230836.910,4728.7756,N,1903.5562,E,1,,,,,,,,*73
$GPRMC,230837.59,A,4728.7756,N,1903.5562,E,00.00,335.02,180317,,*3C
$GPGGA,230837.59,4728.7756,N,1903.5562,E,1,,,,,,,,*46
$GPRMC,230837.209,A,4728.7756,N,1903.5562,E,00.00,335.02,180317,,*0B
$GPGGA,230837.209,4728.7756,N,1903.5562,E,1,,,,,,,,*71
$GPRMC,230837.360,A,4728.7756,N,1903.5562,E,00.00,335.02,180317,,*05
$GPGGA,230837.360,4728.7756,N,1903.5562,E,1,,,,,,,,*7F
$GPRMC,230837.509,A,4728.7756,N,1903.5562,E,00.00,335.02,180317,,*0C
$GPGGA,230837.509,4728.7756,N,1903.5562,E,1,,,,,,,,*76
$GPRMC,230837.659,A,4728.7756,N,1903.5562,E,00.00,335.02,180317,,*0A
$GPGGA,230837.659,4728.7756,N,1903.5562,E,1,,,,,,,,*70
$GPRMC,230837.810,A,4728.7756,N,1903.5562,E,00.00,335.02,180317,,*09
$GPGGA,230837.810,4728.7756,N,1903.5562,E,1,,,,,,,,*73
$GPRMC,230837.959,A,4728.7756,N,1903.5562,E,00.00,335.02,180317,,*05
$GPGGA,230837.959,4728.7756,N,1903.5562,E,1,,,,,,,,*7F
$GPRMC,230838.109,A,4728.7756,N,1903.5562,E,00.00,335.02,180317,,*07
$GPGGA,230838.109,4728.7756,N,1903.5562,E,1,,,,,,,,*7D
$GPRMC,230838.260,A,4728.7756,N,1903.5562,E,00.00,335.02,180317,,*0B
$GPGGA,230838.260,4728.7756,N,1903.5562,E,1,,,,,,,,*71
$GPRMC,230838.410,A,4728.7756,N,1903.5562,E,00.00,335.02,180317,,*0A
$GPGGA,230838.410,4728.7756,N,1903.5562,E,1,,,,,,,,*70
$GPRMC,230838.560,A,4728.7756,N,1903.5562,E,00.00,335.02,180317,,*0C
$GPGGA,230838.560,4728.7756,N,1903.5562,E,1,,,,,,,,*76
$GPRMC,230838.711,A,4728.7756,N,1903.5562,E,00.00,335.02,180317,,*08
$GPGGA,230838.711,4728.7756,N,1903.5562,E,1,,,,,,,,*72
$GPRMC,230838.861,A,4728.7756,N,1903.5562,E,00.00,335.02,180317,,*00
$GPGGA,230838.861,4728.7756,N,1903.5562,E,1,,,,,,,,*7A
$GPRMC,230839.10,A,4728.7756,N,1903.5562,E,00.00,335.02,180317,,*3F
$GPGGA,230839.10,4728.7756,N,1903.5562,E,1,,,,,,,,*45
$GPRMC,230839.161,A,4728.7756,N,1903.5562,E,00.00,335.02,180317,,*08
$GPGGA,230839.161,4728.7756,N,1903.5562,E,1,,,,,,,,*72
$GPRMC,230839.311,A,4728.7756,N,1903.5562,E,00.00,335.02,180317,,*0D
$GPGGA,230839.311,4728.7756,N,1903.5562,E,1,,,,,,,,*77
$GPRMC,230839.462,A,4728.7756,N,1903.5562,E,00.00,335.02,180317,,*0E
$GPGGA,230839.462,4728.7756,N,1903.5562,E,1,,,,,,,,*74
$GPRMC,230839.612,A,4728.7756,N,1903.5562,E,00.00,335.02,180317,,*0B
$GPGGA,230839.612,4728.7756,N,1903.5562,E,1,,,,,,,,*71
$GPRMC,230839.763,A,4728.7756,N,1903.5562,E,00.00,335.02,180317,,*0C
$GPGGA,230839.763,4728.7756,N,1903.5562,E,1,,,,,,,,*76
$GPRMC,230839.912,A,4728.7756,N,1903.5562,E,00.00,335.02,180317,,*04
$GPGGA,230839.912,4728.7756,N,1903.5562,E,1,,,,,,,,*7E
$GPRMC,230840.63,A,4728.7756,N,1903.5562,E,00.00,335.02,180317,,*35
$GPGGA,230840.63,4728.7756,N,1903.5562,E,1,,,,,,,,*4F
$GPRMC,230840.213,A,4728.7759,N,1903.5559,E,01.52,335.02,180317,,*01
$GPGGA,230840.213,4728.7759,N,1903.5559,E,1,,,,,,,,*7D
$GPRMC,230840.363,A,4728.7768,N,1903.5558,E,03.11,341.21,180317,,*03
$GPGGA,230840.363,4728.7768,N,1903.5558,E,1,,,,,,,,*78
$GPRMC,230840.513,A,4728.7782,N,1903.5547,E,05.94,340.59,180317,,*0D
$GPGGA,230840.513,4728.7782,N,1903.5547,E,1,,,,,,,,*73
$GPRMC,230840.664,A,4728.7800,N,1903.5528,E,07.87,325.42,180317,,*0B
$GPGGA,230840.664,4728.7800,N,1903.5528,E,1,,,,,,,,*7C
$GPRMC,230840.814,A,4728.7822,N,1903.5504,E,09.94,325.42,180317,,*00
$GPGGA,230840.814,4728.7822,N,1903.5504,E,1,,,,,,,,*7B
$GPRMC,230840.963,A,4728.7849,N,1903.5474,E,12.26,324.63,180317,,*0B
$GPGGA,230840.963,4728.7849,N,1903.5474,E,1,,,,,,,,*71
$GPRMC,230841.113,A,4728.7881,N,1903.5438,E,14.47,323.68,180317,,*04
$GPGGA,230841.113,4728.7881,N,1903.5438,E,1,,,,,,,,*73
$GPRMC,230841.264,A,4728.7919,N,1903.5395,E,17.06,323.68,180317,,*01
$GPGGA,230841.264,4728.7919,N,1903.5395,E,1,,,,,,,,*70
$GPRMC,230841.414,A,4728.7962,N,1903.5345,E,19.95,323.68,180317,,*05
$GPGGA,230841.414,4728.7962,N,1903.5345,E,1,,,,,,,,*70
$GPRMC,230841.563,A,4728.8010,N,1903.5291,E,21.65,323.68,180317,,*0B
$GPGGA,230841.563,4728.8010,N,1903.5291,E,1,,,,,,,,*7A
$GPRMC,230841.713,A,4728.8063,N,1903.5231,E,24.02,323.68,180317,,*04
$GPGGA,230841.713,4728.8063,N,1903.5231,E,1,,,,,,,,*71
$GPRMC,230841.864,A,4728.8119,N,1903.5166,E,25.80,323.68,180317,,*0D
$GPGGA,230841.864,4728.8119,N,1903.5166,E,1,,,,,,,,*73
$GPRMC,230842.14,A,4728.8177,N,1903.5100,E,26.40,323.68,180317,,*36
$GPGGA,230842.14,4728.8177,N,1903.5100,E,1,,,,,,,,*47
$GPRMC,230842.163,A,4728.8234,N,1903.5035,E,25.93,323.68,180317,,*09
$GPGGA,230842.163,4728.8234,N,1903.5035,E,1,,,,,,,,*75
$GPRMC,230842.313,A,4728.8291,N,1903.4969,E,26.12,323.68,180317,,*08
$GPGGA,230842.313,4728.8291,N,1903.4969,E,1,,,,,,,,*7E
$GPRMC,230842.464,A,4728.8348,N,1903.4905,E,25.75,323.68,180317,,*02
$GPGGA,230842.464,4728.8348,N,1903.4905,E,1,,,,,,,,*76
$GPRMC,230842.614,A,4728.8405,N,1903.4839,E,26.02,323.68,180317,,*04
$GPGGA,230842.614,4728.8405,N,1903.4839,E,1,,,,,,,,*73
$GPRMC,230842.763,A,4728.8461,N,1903.4775,E,25.58,323.68,180317,,*0C
$GPGGA,230842.763,4728.8461,N,1903.4775,E,1,,,,,,,,*77
$GPRMC,230842.914,A,4728.8518,N,1903.4710,E,25.78,322.66,180317,,*03
$GPGGA,230842.914,4728.8518,N,1903.4710,E,1,,,,,,,,*75
$GPRMC,230843.65,A,4728.8568,N,1903.4648,E,23.80,321.84,180317,,*38
$GPGGA,230843.65,4728.8568,N,1903.4648,E,1,,,,,,,,*40
$GPRMC,230843.214,A,4728.8595,N,1903.4601,E,15.06,310.69,180317,,*09
$GPGGA,230843.214,4728.8595,N,1903.4601,E,1,,,,,,,,*7B
$GPRMC,230843.364,A,4728.8578,N,1903.4590,E,17.10,153.79,180317,,*06
$GPGGA,230843.364,4728.8578,N,1903.4590,E,1,,,,,,,,*75
$GPRMC,230843.515,A,4728.8541,N,1903.4647,E,19.43,140.09,180317,,*08
$GPGGA,230843.515,4728.8541,N,1903.4647,E,1,,,,,,,,*76
$GPRMC,230843.664,A,4728.8495,N,1903.4703,E,21.27,141.85,180317,,*08
$GPGGA,230843.664,4728.8495,N,1903.4703,E,1,,,,,,,,*7A
$GPRMC,230843.815,A,4728.8445,N,1903.4761,E,23.03,143.68,180317,,*0C
$GPGGA,230843.815,4728.8445,N,1903.4761,E,1,,,,,,,,*7B
$GPRMC,230843.965,A,4728.8389,N,1903.4825,E,25.56,143.68,180317,,*04
$GPGGA,230843.965,4728.8389,N,1903.4825,E,1,,,,,,,,*75
$GPRMC,230844.114,A,4728.8332,N,1903.4889,E,25.70,143.68,180317,,*0F
$GPGGA,230844.114,4728.8332,N,1903.4889,E,1,,,,,,,,*7A
$GPRMC,230844.265,A,4728.8276,N,1903.4954,E,25.89,143.68,180317,,*0C
$GPGGA,230844.265,4728.8276,N,1903.4954,E,1,,,,,,,,*7F
$GPRMC,230844.414,A,4728.8217,N,1903.5021,E,26.62,143.68,180317,,*07
$GPGGA,230844.414,4728.8217,N,1903.5021,E,1,,,,,,,,*72
$GPRMC,230844.564,A,4728.8161,N,1903.5085,E,25.64,143.68,180317,,*08
$GPGGA,230844.564,4728.8161,N,1903.5085,E,1,,,,,,,,*78
$GPRMC,230844.715,A,4728.8105,N,1903.5149,E,25.56,143.68,180317,,*0E
$GPGGA,230844.715,4728.8105,N,1903.5149,E,1,,,,,,,,*7F
$GPRMC,230844.864,A,4728.8048,N,1903.5214,E,25.72,143.68,180317,,*02
$GPGGA,230844.864,4728.8048,N,1903.5214,E,1,,,,,,,,*75
$GPRMC,230845.15,A,4728.7992,N,1903.5278,E,25.76,143.68,180317,,*32
$GPGGA,230845.15,4728.7992,N,1903.5278,E,1,,,,,,,,*41
$GPRMC,230845.164,A,4728.7933,N,1903.5346,E,26.83,143.68,180317,,*0B
$GPGGA,230845.164,4728.7933,N,1903.5346,E,1,,,,,,,,*71
$GPRMC,230845.314,A,4728.7876,N,1903.5411,E,25.93,143.68,180317,,*09
$GPGGA,230845.314,4728.7876,N,1903.5411,E,1,,,,,,,,*71
$GPRMC,230845.465,A,4728.7823,N,1903.5470,E,23.86,144.13,180317,,*06
$GPGGA,230845.465,4728.7823,N,1903.5470,E,1,,,,,,,,*77
$GPRMC,230845.614,A,4728.7786,N,1903.5510,E,16.71,145.39,180317,,*02
$GPGGA,230845.614,4728.7786,N,1903.5510,E,1,,,,,,,,*74
$GPRMC,230845.765,A,4728.7767,N,1903.5531,E,08.43,145.39,180317,,*07
$GPGGA,230845.765,4728.7767,N,1903.5531,E,1,,,,,,,,*7F
$GPRMC,230845.914,A,4728.7766,N,1903.5532,E,00.32,145.39,180317,,*03
$GPGGA,230845.914,4728.7766,N,1903.5532,E,1,,,,,,,,*75
$GPRMC,230846.65,A,4728.7766,N,1903.5532,E,00.17,145.39,180317,,*38
$GPGGA,230846.65,4728.7766,N,1903.5532,E,1,,,,,,,,*49
$GPRMC,230846.216,A,4728.7766,N,1903.5532,E,00.04,145.39,180317,,*0C
$GPGGA,230846.216,4728.7766,N,1903.5532,E,1,,,,,,,,*7F
$GPRMC,230846.366,A,4728.7766,N,1903.5532,E,00.03,145.39,180317,,*0D
$GPGGA,230846.366,4728.7766,N,1903.5532,E,1,,,,,,,,*79
$GPRMC,230846.515,A,4728.7766,N,1903.5532,E,00.00,145.39,180317,,*0C
$GPGGA,230846.515,4728.7766,N,1903.5532,E,1,,,,,,,,*7B
$GPRMC,230846.666,A,4728.7766,N,1903.5532,E,00.00,145.39,180317,,*0B
$GPGGA,230846.666,4728.7766,N,1903.5532,E,1,,,,,,,,*7C
$GPRMC,230846.816,A,4728.7766,N,1903.5532,E,00.00,145.39,180317,,*02
$GPGGA,230846.816,4728.7766,N,1903.5532,E,1,,,,,,,,*75
$GPRMC,230846.965,A,4728.7761,N,1903.5537,E,01.86,145.39,180317,,*0A
$GPGGA,230846.965,4728.7761,N,1903.5537,E,1,,,,,,,,*72
$GPRMC,230847.115,A,4728.7750,N,1903.5544,E,04.75,151.46,180317,,*06
$GPGGA,230847.115,4728.7750,N,1903.5544,E,1,,,,,,,,*7A
$GPRMC,230847.265,A,4728.7731,N,1903.5543,E,07.57,177.10,180317,,*06
$GPGGA,230847.265,4728.7731,N,1903.5543,E,1,,,,,,,,*7E
$GPRMC,230847.416,A,4728.7708,N,1903.5560,E,10.03,154.31,180317,,*0A
$GPGGA,230847.416,4728.7708,N,1903.5560,E,1,,,,,,,,*77
$GPRMC,230847.566,A,4728.7681,N,1903.5591,E,12.19,143.10,180317,,*0E
$GPGGA,230847.566,4728.7681,N,1903.5591,E,1,,,,,,,,*7F
$GPRMC,230847.716,A,4728.7652,N,1903.5626,E,13.65,143.10,180317,,*00
$GPGGA,230847.716,4728.7652,N,1903.5626,E,1,,,,,,,,*7B
$GPRMC,230847.865,A,4728.7612,N,1903.5639,E,15.70,143.09,180317,,*0B
$GPGGA,230847.865,4728.7612,N,1903.5639,E,1,,,,,,,,*7A
$GPRMC,230848.15,A,4728.7571,N,1903.5686,E,18.40,143.09,180317,,*37
$GPGGA,230848.15,4728.7571,N,1903.5686,E,1,,,,,,,,*48
$GPRMC,230848.165,A,4728.7526,N,1903.5738,E,20.65,143.09,180317,,*0B
$GPGGA,230848.165,4728.7526,N,1903.5738,E,1,,,,,,,,*78
$GPRMC,230848.315,A,4728.7475,N,1903.5798,E,23.32,143.09,180317,,*02
$GPGGA,230848.315,4728.7475,N,1903.5798,E,1,,,,,,,,*70
$GPRMC,230848.466,A,4728.7420,N,1903.5862,E,25.37,143.09,180317,,*08
$GPGGA,230848.466,4728.7420,N,1903.5862,E,1,,,,,,,,*79
$GPRMC,230848.615,A,4728.7359,N,1903.5927,E,27.18,150.08,180317,,*0B
$GPGGA,230848.615,4728.7359,N,1903.5927,E,1,,,,,,,,*76
$GPRMC,230848.766,A,4728.7288,N,1903.5990,E,29.63,150.08,180317,,*0D
$GPGGA,230848.766,4728.7288,N,1903.5990,E,1,,,,,,,,*72
$GPRMC,230848.915,A,4728.7211,N,1903.6060,E,32.45,150.08,180317,,*0C
$GPGGA,230848.915,4728.7211,N,1903.6060,E,1,,,,,,,,*7D
$GPRMC,230849.65,A,4728.7133,N,1903.6139,E,34.17,145.68,180317,,*3E
$GPGGA,230849.65,4728.7133,N,1903.6139,E,1,,,,,,,,*4C
$GPRMC,230849.215,A,4728.7051,N,1903.6225,E,36.05,145.68,180317,,*01
$GPGGA,230849.215,4728.7051,N,1903.6225,E,1,,,,,,,,*72
$GPRMC,230849.366,A,4728.6966,N,1903.6316,E,37.65,145.68,180317,,*0E
$GPGGA,230849.366,4728.6966,N,1903.6316,E,1,,,,,,,,*7A
$GPRMC,230849.517,A,4728.6882,N,1903.6405,E,37.10,145.68,180317,,*02
$GPGGA,230849.517,4728.6882,N,1903.6405,E,1,,,,,,,,*74
$GPRMC,230849.666,A,4728.6797,N,1903.6495,E,37.53,145.68,180317,,*02
$GPGGA,230849.666,4728.6797,N,1903.6495,E,1,,,,,,,,*73
$GPRMC,230849.816,A,4728.6712,N,1903.6585,E,37.77,145.71,180317,,*08
$GPGGA,230849.816,4728.6712,N,1903.6585,E,1,,,,,,,,*77
$GPRMC,230849.967,A,4728.6627,N,1903.6674,E,37.47,146.27,180317,,*06
$GPGGA,230849.967,4728.6627,N,1903.6674,E,1,,,,,,,,*7A
$GPRMC,230850.117,A,4728.6544,N,1903.6760,E,36.66,146.27,180317,,*01
$GPGGA,230850.117,4728.6544,N,1903.6760,E,1,,,,,,,,*7F
$GPRMC,230850.266,A,4728.6460,N,1903.6847,E,37.10,146.27,180317,,*09
$GPGGA,230850.266,4728.6460,N,1903.6847,E,1,,,,,,,,*77
$GPRMC,230850.416,A,4728.6376,N,1903.6933,E,36.63,146.60,180317,,*0C
$GPGGA,230850.416,4728.6376,N,1903.6933,E,1,,,,,,,,*74
$GPRMC,230850.566,A,4728.6293,N,1903.7018,E,36.45,146.60,180317,,*05
$GPGGA,230850.566,4728.6293,N,1903.7018,E,1,,,,,,,,*79
$GPRMC,230850.717,A,4728.6214,N,1903.7121,E,37.57,151.18,180317,,*0E
$GPGGA,230850.717,4728.6214,N,1903.7121,E,1,,,,,,,,*79
$GPRMC,230850.866,A,4728.6127,N,1903.7196,E,36.34,151.18,180317,,*0C
$GPGGA,230850.866,4728.6127,N,1903.7196,E,1,,,,,,,,*7F
$GPRMC,230851.16,A,4728.6035,N,1903.7270,E,37.75,152.97,180317,,*3B
$GPGGA,230851.16,4728.6035,N,1903.7270,E,1,,,,,,,,*48
$GPRMC,230851.166,A,4728.5944,N,1903.7343,E,36.91,152.97,180317,,*0B
$GPGGA,230851.166,4728.5944,N,1903.7343,E,1,,,,,,,,*73
$GPRMC,230851.316,A,4728.5854,N,1903.7412,E,36.68,155.35,180317,,*04
$GPGGA,230851.316,4728.5854,N,1903.7412,E,1,,,,,,,,*75
$GPRMC,230851.467,A,4728.5763,N,1903.7477,E,36.45,155.35,180317,,*02
$GPGGA,230851.467,4728.5763,N,1903.7477,E,1,,,,,,,,*7C
$GPRMC,230851.616,A,4728.5669,N,1903.7545,E,37.46,155.35,180317,,*0F
$GPGGA,230851.616,4728.5669,N,1903.7545,E,1,,,,,,,,*73
$GPRMC,230851.767,A,4728.5574,N,1903.7606,E,37.25,159.21,180317,,*0F
$GPGGA,230851.767,4728.5574,N,1903.7606,E,1,,,,,,,,*7F
$GPRMC,230851.916,A,4728.5478,N,1903.7664,E,37.41,159.21,180317,,*0C
$GPGGA,230851.916,4728.5478,N,1903.7664,E,1,,,,,,,,*7E
$GPRMC,230852.67,A,4728.5381,N,1903.7722,E,37.78,159.21,180317,,*38
$GPGGA,230852.67,4728.5381,N,1903.7722,E,1,,,,,,,,*40
$GPRMC,230852.217,A,4728.5285,N,1903.7779,E,37.12,160.26,180317,,*07
$GPGGA,230852.217,4728.5285,N,1903.7779,E,1,,,,,,,,*7E
$GPRMC,230852.367,A,4728.5188,N,1903.7829,E,36.83,162.29,180317,,*01
$GPGGA,230852.367,4728.5188,N,1903.7829,E,1,,,,,,,,*7C
$GPRMC,230852.517,A,4728.5090,N,1903.7879,E,37.42,162.29,180317,,*01
$GPGGA,230852.517,4728.5090,N,1903.7879,E,1,,,,,,,,*70
$GPRMC,230852.668,A,4728.4991,N,1903.7929,E,37.54,162.29,180317,,*00
$GPGGA,230852.668,4728.4991,N,1903.7929,E,1,,,,,,,,*76
$GPRMC,230852.818,A,4728.4894,N,1903.7978,E,36.96,163.49,180317,,*01
$GPGGA,230852.818,4728.4894,N,1903.7978,E,1,,,,,,,,*7F
$GPRMC,230852.968,A,4728.4795,N,1903.8022,E,37.06,164.73,180317,,*06
$GPGGA,230852.968,4728.4795,N,1903.8022,E,1,,,,,,,,*7E
$GPRMC,230853.117,A,4728.4698,N,1903.8065,E,36.55,164.73,180317,,*0F
$GPGGA,230853.117,4728.4698,N,1903.8065,E,1,,,,,,,,*70
$GPRMC,230853.268,A,4728.4600,N,1903.8105,E,36.64,167.04,180317,,*03
$GPGGA,230853.268,4728.4600,N,1903.8105,E,1,,,,,,,,*7D
$GPRMC,230853.418,A,4728.4500,N,1903.8143,E,37.24,167.04,180317,,*06
$GPGGA,230853.418,4728.4500,N,1903.8143,E,1,,,,,,,,*7D
$GPRMC,230853.568,A,4728.4401,N,1903.8181,E,36.60,167.04,180317,,*0F
$GPGGA,230853.568,4728.4401,N,1903.8181,E,1,,,,,,,,*75
$GPRMC,230853.718,A,4728.4315,N,1903.8212,E,31.85,167.90,180317,,*00
$GPGGA,230853.718,4728.4315,N,1903.8212,E,1,,,,,,,,*7B
$GPRMC,230853.869,A,4728.4252,N,1903.8234,E,23.41,167.90,180317,,*04
$GPGGA,230853.869,4728.4252,N,1903.8234,E,1,,,,,,,,*74
$GPRMC,230854.19,A,4728.4212,N,1903.8248,E,14.66,167.90,180317,,*32
$GPGGA,230854.19,4728.4212,N,1903.8248,E,1,,,,,,,,*43
$GPRMC,230854.169,A,4728.4222,N,1903.8272,E,17.39,09.60,180317,,*31
$GPGGA,230854.169,4728.4222,N,1903.8272,E,1,,,,,,,,*7F
$GPRMC,230854.319,A,4728.4275,N,1903.8253,E,19.77,347.91,180317,,*06
$GPGGA,230854.319,4728.4275,N,1903.8253,E,1,,,,,,,,*7B
$GPRMC,230854.502,A,4728.4335,N,1903.8231,E,22.39,347.91,180317,,*09
$GPGGA,230854.502,4728.4335,N,1903.8231,E,1,,,,,,,,*76
$GPRMC,230854.651,A,4728.4403,N,1903.8207,E,25.25,347.38,180317,,*02
$GPGGA,230854.651,4728.4403,N,1903.8207,E,1,,,,,,,,*74
$GPRMC,230854.802,A,4728.4479,N,1903.8178,E,28.14,347.04,180317,,*0C
$GPGGA,230854.802,4728.4479,N,1903.8178,E,1,,,,,,,,*7A
$GPRMC,230854.952,A,4728.4560,N,1903.8148,E,30.24,347.04,180317,,*08
$GPGGA,230854.952,4728.4560,N,1903.8148,E,1,,,,,,,,*74
$GPRMC,230855.101,A,4728.4647,N,1903.8115,E,32.24,347.04,180317,,*0B
$GPGGA,230855.101,4728.4647,N,1903.8115,E,1,,,,,,,,*75
$GPRMC,230855.252,A,4728.4739,N,1903.8074,E,34.49,344.72,180317,,*0F
$GPGGA,230855.252,4728.4739,N,1903.8074,E,1,,,,,,,,*7E
$GPRMC,230855.401,A,4728.4836,N,1903.8031,E,36.71,344.72,180317,,*07
$GPGGA,230855.401,4728.4836,N,1903.8031,E,1,,,,,,,,*7F
$GPRMC,230855.552,A,4728.4933,N,1903.7987,E,36.73,342.72,180317,,*0B
$GPGGA,230855.552,4728.4933,N,1903.7987,E,1,,,,,,,,*77
$GPRMC,230855.701,A,4728.5032,N,1903.7936,E,37.48,342.28,180317,,*0A
$GPGGA,230855.701,4728.5032,N,1903.7936,E,1,,,,,,,,*70
$GPRMC,230855.852,A,4728.5135,N,1903.7911,E,37.24,342.28,180317,,*0A
$GPGGA,230855.852,4728.5135,N,1903.7911,E,1,,,,,,,,*7A
$GPRMC,230856.01,A,4728.5234,N,1903.7861,E,37.40,342.28,180317,,*31
$GPGGA,230856.01,4728.5234,N,1903.7861,E,1,,,,,,,,*43
$GPRMC,230856.152,A,4728.5329,N,1903.7810,E,36.56,339.52,180317,,*0A
$GPGGA,230856.152,4728.5329,N,1903.7810,E,1,,,,,,,,*7F
$GPRMC,230856.301,A,4728.5426,N,1903.7752,E,37.51,339.21,180317,,*0D
$GPGGA,230856.301,4728.5426,N,1903.7752,E,1,,,,,,,,*7A
$GPRMC,230856.452,A,4728.5521,N,1903.7694,E,37.10,339.21,180317,,*04
$GPGGA,230856.452,4728.5521,N,1903.7694,E,1,,,,,,,,*76
$GPRMC,230856.601,A,4728.5615,N,1903.7638,E,36.49,339.21,180317,,*0F
$GPGGA,230856.601,4728.5615,N,1903.7638,E,1,,,,,,,,*70
$GPRMC,230856.752,A,4728.5708,N,1903.7575,E,36.97,335.34,180317,,*04
$GPGGA,230856.752,4728.5708,N,1903.7575,E,1,,,,,,,,*70
$GPRMC,230856.901,A,4728.5800,N,1903.7509,E,36.74,335.34,180317,,*0D
$GPGGA,230856.901,4728.5800,N,1903.7509,E,1,,,,,,,,*74
$GPRMC,230857.51,A,4728.5892,N,1903.7442,E,36.82,335.34,180317,,*3C
$GPGGA,230857.51,4728.5892,N,1903.7442,E,1,,,,,,,,*4C
$GPRMC,230857.202,A,4728.5985,N,1903.7370,E,37.69,332.98,180317,,*0C
$GPGGA,230857.202,4728.5985,N,1903.7370,E,1,,,,,,,,*79
$GPRMC,230857.351,A,4728.6076,N,1903.7297,E,37.11,332.98,180317,,*0A
$GPGGA,230857.351,4728.6076,N,1903.7297,E,1,,,,,,,,*70
$GPRMC,230857.502,A,4728.6167,N,1903.7222,E,37.43,331.18,180317,,*09
$GPGGA,230857.502,4728.6167,N,1903.7222,E,1,,,,,,,,*7F
$GPRMC,230857.653,A,4728.6255,N,1903.7146,E,36.88,331.18,180317,,*0B
$GPGGA,230857.653,4728.6255,N,1903.7146,E,1,,,,,,,,*7B
$GPRMC,230857.802,A,4728.6341,N,1903.7066,E,36.45,326.59,180317,,*04
$GPGGA,230857.802,4728.6341,N,1903.7066,E,1,,,,,,,,*76
$GPRMC,230857.953,A,4728.6426,N,1903.6978,E,37.46,326.59,180317,,*02
$GPGGA,230857.953,4728.6426,N,1903.6978,E,1,,,,,,,,*72
$GPRMC,230858.102,A,4728.6512,N,1903.6890,E,37.49,326.26,180317,,*07
$GPGGA,230858.102,4728.6512,N,1903.6890,E,1,,,,,,,,*70
$GPRMC,230858.253,A,4728.6595,N,1903.6803,E,36.72,326.26,180317,,*0C
$GPGGA,230858.253,4728.6595,N,1903.6803,E,1,,,,,,,,*72
$GPRMC,230858.402,A,4728.6679,N,1903.6716,E,37.11,326.26,180317,,*00
$GPGGA,230858.402,4728.6679,N,1903.6716,E,1,,,,,,,,*7A
$GPRMC,230858.553,A,4728.6764,N,1903.6628,E,37.23,325.78,180317,,*0D
$GPGGA,230858.553,4728.6764,N,1903.6628,E,1,,,,,,,,*7E
$GPRMC,230858.702,A,4728.6846,N,1903.6540,E,36.68,325.68,180317,,*06
$GPGGA,230858.702,4728.6846,N,1903.6540,E,1,,,,,,,,*7A
$GPRMC,230858.853,A,4728.6931,N,1903.6450,E,37.50,325.68,180317,,*06
$GPGGA,230858.853,4728.6931,N,1903.6450,E,1,,,,,,,,*70
$GPRMC,230859.02,A,4728.7014,N,1903.6362,E,37.01,325.68,180317,,*36
$GPGGA,230859.02,4728.7014,N,1903.6362,E,1,,,,,,,,*44
$GPRMC,230859.153,A,4728.7098,N,1903.6272,E,37.39,325.68,180317,,*0C
$GPGGA,230859.153,4728.7098,N,1903.6272,E,1,,,,,,,,*75
$GPRMC,230859.302,A,4728.7181,N,1903.6184,E,36.99,325.68,180317,,*02
$GPGGA,230859.302,4728.7181,N,1903.6184,E,1,,,,,,,,*70
$GPRMC,230859.452,A,4728.7268,N,1903.6100,E,37.42,330.07,180317,,*02
$GPGGA,230859.452,4728.7268,N,1903.6100,E,1,,,,,,,,*7A
$GPRMC,230859.603,A,4728.7357,N,1903.6021,E,37.45,330.07,180317,,*0C
$GPGGA,230859.603,4728.7357,N,1903.6021,E,1,,,,,,,,*73
$GPRMC,230859.752,A,4728.7443,N,1903.5935,E,37.57,323.10,180317,,*03
$GPGGA,230859.752,4728.7443,N,1903.5935,E,1,,,,,,,,*7B
$GPRMC,230859.902,A,4728.7525,N,1903.5840,E,37.39,323.10,180317,,*02
$GPGGA,230859.902,4728.7525,N,1903.5840,E,1,,,,,,,,*72
$GPRMC,230900.53,A,4728.7605,N,1903.5747,E,36.66,323.10,180317,,*30
$GPGGA,230900.53,4728.7605,N,1903.5747,E,1,,,,,,,,*4B
$GPRMC,230900.202,A,4728.7671,N,1903.5669,E,30.72,323.10,180317,,*0B
$GPGGA,230900.202,4728.7671,N,1903.5669,E,1,,,,,,,,*73
$GPRMC,230900.352,A,4728.7719,N,1903.5614,E,21.97,323.10,180317,,*01
$GPGGA,230900.352,4728.7719,N,1903.5614,E,1,,,,,,,,*72
$GPRMC,230900.503,A,4728.7774,N,1903.5556,E,24.27,329.71,180317,,*0E
$GPGGA,230900.503,4728.7774,N,1903.5556,E,1,,,,,,,,*7E
$GPRMC,230900.652,A,4728.7834,N,1903.5492,E,26.81,325.42,180317,,*09
$GPGGA,230900.652,4728.7834,N,1903.5492,E,1,,,,,,,,*7B
$GPRMC,230900.803,A,4728.7893,N,1903.5424,E,26.93,323.68,180317,,*0E
$GPGGA,230900.803,4728.7893,N,1903.5424,E,1,,,,,,,,*71
$GPRMC,230900.952,A,4728.7950,N,1903.5359,E,26.03,323.68,180317,,*01
$GPGGA,230900.952,4728.7950,N,1903.5359,E,1,,,,,,,,*77
$GPRMC,230901.103,A,4728.8009,N,1903.5292,E,26.91,323.68,180317,,*0B
$GPGGA,230901.103,4728.8009,N,1903.5292,E,1,,,,,,,,*76
$GPRMC,230901.253,A,4728.8067,N,1903.5225,E,26.40,323.68,180317,,*05
$GPGGA,230901.253,4728.8067,N,1903.5225,E,1,,,,,,,,*74
$GPRMC,230901.403,A,4728.8125,N,1903.5159,E,26.53,323.68,180317,,*0B
$GPGGA,230901.403,4728.8125,N,1903.5159,E,1,,,,,,,,*78
$GPRMC,230901.553,A,4728.8183,N,1903.5094,E,26.03,323.68,180317,,*06
$GPGGA,230901.553,4728.8183,N,1903.5094,E,1,,,,,,,,*70
$GPRMC,230901.704,A,4728.8240,N,1903.5027,E,26.35,323.68,180317,,*07
$GPGGA,230901.704,4728.8240,N,1903.5027,E,1,,,,,,,,*74
$GPRMC,230901.854,A,4728.8298,N,1903.4962,E,26.04,323.68,180317,,*03
$GPGGA,230901.854,4728.8298,N,1903.4962,E,1,,,,,,,,*72
$GPRMC,230902.03,A,4728.8356,N,1903.4895,E,26.75,323.68,180317,,*36
$GPGGA,230902.03,4728.8356,N,1903.4895,E,1,,,,,,,,*41
$GPRMC,230902.154,A,4728.8415,N,1903.4828,E,26.55,323.68,180317,,*01
$GPGGA,230902.154,4728.8415,N,1903.4828,E,1,,,,,,,,*74
$GPRMC,230902.303,A,4728.8473,N,1903.4762,E,26.56,323.68,180317,,*03
$GPGGA,230902.303,4728.8473,N,1903.4762,E,1,,,,,,,,*75
$GPRMC,230902.454,A,4728.8531,N,1903.4694,E,26.71,321.84,180317,,*0C
$GPGGA,230902.454,4728.8531,N,1903.4694,E,1,,,,,,,,*7F
$GPRMC,230902.603,A,4728.8584,N,1903.4621,E,26.34,313.17,180317,,*06
$GPGGA,230902.603,4728.8584,N,1903.4621,E,1,,,,,,,,*7F
$GPRMC,230902.753,A,4728.8626,N,1903.4539,E,25.07,306.84,180317,,*0E
$GPGGA,230902.753,4728.8626,N,1903.4539,E,1,,,,,,,,*7A
$GPRMC,230902.904,A,4728.8604,N,1903.4527,E,16.32,164.79,180317,,*0F
$GPGGA,230902.904,4728.8604,N,1903.4527,E,1,,,,,,,,*79
$GPRMC,230903.55,A,4728.8568,N,1903.4577,E,19.06,124.03,180317,,*3E
$GPGGA,230903.55,4728.8568,N,1903.4577,E,1,,,,,,,,*49
$GPRMC,230903.204,A,4728.8521,N,1903.4630,E,20.95,143.83,180317,,*0C
$GPGGA,230903.204,4728.8521,N,1903.4630,E,1,,,,,,,,*72
$GPRMC,230903.354,A,4728.8468,N,1903.4690,E,23.82,143.83,180317,,*0B
$GPGGA,230903.354,4728.8468,N,1903.4690,E,1,,,,,,,,*70
$GPRMC,230903.504,A,4728.8410,N,1903.4756,E,25.71,143.83,180317,,*06
$GPGGA,230903.504,4728.8410,N,1903.4756,E,1,,,,,,,,*77
$GPRMC,230903.654,A,4728.8350,N,1903.4824,E,26.95,143.83,180317,,*00
$GPGGA,230903.654,4728.8350,N,1903.4824,E,1,,,,,,,,*78
$GPRMC,230903.805,A,4728.8291,N,1903.4889,E,26.13,147.02,180317,,*02
$GPGGA,230903.805,4728.8291,N,1903.4889,E,1,,,,,,,,*79
$GPRMC,230903.954,A,4728.8219,N,1903.4888,E,25.69,201.91,180317,,*03
$GPGGA,230903.954,4728.8219,N,1903.4888,E,1,,,,,,,,*7D
$GPRMC,230904.104,A,4728.8195,N,1903.4827,E,16.95,252.26,180317,,*02
$GPGGA,230904.104,4728.8195,N,1903.4827,E,1,,,,,,,,*75
$GPRMC,230904.255,A,4728.8183,N,1903.4797,E,08.64,243.36,180317,,*06
$GPGGA,230904.255,4728.8183,N,1903.4797,E,1,,,,,,,,*71
$GPRMC,230904.405,A,4728.8166,N,1903.4761,E,10.59,236.07,180317,,*00
$GPGGA,230904.405,4728.8166,N,1903.4761,E,1,,,,,,,,*70
$GPRMC,230904.555,A,4728.8145,N,1903.4719,E,12.60,236.11,180317,,*05
$GPGGA,230904.555,4728.8145,N,1903.4719,E,1,,,,,,,,*7A
$GPRMC,230904.705,A,4728.8137,N,1903.4701,E,05.32,236.56,180317,,*0C
$GPGGA,230904.705,4728.8137,N,1903.4701,E,1,,,,,,,,*71
$GPRMC,230904.855,A,4728.8136,N,1903.4699,E,00.71,236.62,180317,,*02
$GPGGA,230904.855,4728.8136,N,1903.4699,E,1,,,,,,,,*7A
$GPRMC,230905.05,A,4728.8135,N,1903.4698,E,00.45,236.66,180317,,*3F
$GPGGA,230905.05,4728.8135,N,1903.4698,E,1,,,,,,,,*44
$GPRMC,230905.155,A,4728.8135,N,1903.4697,E,00.07,236.66,180317,,*02
$GPGGA,230905.155,4728.8135,N,1903.4697,E,1,,,,,,,,*7F
$GPRMC,230905.306,A,4728.8135,N,1903.4697,E,00.03,236.66,180317,,*02
$GPGGA,230905.306,4728.8135,N,1903.4697,E,1,,,,,,,,*7B
$GPRMC,230905.456,A,4728.8135,N,1903.4697,E,00.01,236.67,180317,,*03
$GPGGA,230905.456,4728.8135,N,1903.4697,E,1,,,,,,,,*79
$GPRMC,230905.605,A,4728.8135,N,1903.4697,E,00.01,236.67,180317,,*07
$GPGGA,230905.605,4728.8135,N,1903.4697,E,1,,,,,,,,*7D
$GPRMC,230905.755,A,4728.8135,N,1903.4697,E,00.00,236.67,180317,,*02
$GPGGA,230905.755,4728.8135,N,1903.4697,E,1,,,,,,,,*79
$GPRMC,230905.906,A,4728.8135,N,1903.4697,E,00.00,236.67,180317,,*0A
$GPGGA,230905.906,4728.8135,N,1903.4697,E,1,,,,,,,,*71
