$GPRMC,150007.387,A,4728.5907,N,1902.1108,E,01.56,110.51,010517,,*08
$GPGGA,150007.387,4728.5907,N,1902.1108,E,1,,,,,,,,*7D
$GPRMC,150007.419,A,4728.5904,N,1902.1121,E,03.18,110.51,010517,,*08
$GPGGA,150007.419,4728.5904,N,1902.1121,E,1,,,,,,,,*75
$GPRMC,150007.710,A,4728.5899,N,1902.1142,E,05.63,110.51,010517,,*08
$GPGGA,150007.710,4728.5899,N,1902.1142,E,1,,,,,,,,*7F
$GPRMC,150014.17,A,4728.5891,N,1902.1175,E,08.36,110.51,010517,,*3B
$GPGGA,150014.17,4728.5891,N,1902.1175,E,1,,,,,,,,*41
$GPRMC,150014.317,A,4728.5881,N,1902.1217,E,11.01,110.51,010517,,*02
$GPGGA,150014.317,4728.5881,N,1902.1217,E,1,,,,,,,,*74
$GPRMC,150014.617,A,4728.5869,N,1902.1271,E,13.86,110.51,010517,,*0C
$GPGGA,150014.617,4728.5869,N,1902.1271,E,1,,,,,,,,*77
$GPRMC,150014.916,A,4728.5854,N,1902.1335,E,16.48,110.51,010517,,*0A
$GPGGA,150014.916,4728.5854,N,1902.1335,E,1,,,,,,,,*76
$GPRMC,150015.216,A,4728.5837,N,1902.1405,E,18.19,110.51,010517,,*0B
$GPGGA,150015.216,4728.5837,N,1902.1405,E,1,,,,,,,,*7D
$GPRMC,150015.516,A,4728.5819,N,1902.1483,E,20.28,110.51,010517,,*07
$GPGGA,150015.516,4728.5819,N,1902.1483,E,1,,,,,,,,*78
$GPRMC,150015.816,A,4728.5799,N,1902.1570,E,22.42,110.51,010517,,*0E
$GPGGA,150015.816,4728.5799,N,1902.1570,E,1,,,,,,,,*7F
$GPRMC,150016.116,A,4728.5777,N,1902.1664,E,24.47,110.51,010517,,*01
$GPGGA,150016.116,4728.5777,N,1902.1664,E,1,,,,,,,,*73
$GPRMC,150016.416,A,4728.5753,N,1902.1764,E,25.61,110.51,010517,,*06
$GPGGA,150016.416,4728.5753,N,1902.1764,E,1,,,,,,,,*71
$GPRMC,150016.716,A,4728.5730,N,1902.1863,E,25.59,110.51,010517,,*03
$GPGGA,150016.716,4728.5730,N,1902.1863,E,1,,,,,,,,*7F
$GPRMC,150017.16,A,4728.5706,N,1902.1965,E,26.33,110.51,010517,,*38
$GPGGA,150017.16,4728.5706,N,1902.1965,E,1,,,,,,,,*4B
$GPRMC,150017.316,A,4728.5683,N,1902.2065,E,26.05,110.51,010517,,*08
$GPGGA,150017.316,4728.5683,N,1902.2065,E,1,,,,,,,,*7E
$GPRMC,150017.620,A,4728.5660,N,1902.2165,E,25.65,110.51,010517,,*01
$GPGGA,150017.620,4728.5660,N,1902.2165,E,1,,,,,,,,*72
$GPRMC,150017.916,A,4728.5636,N,1902.2265,E,25.91,110.52,010517,,*03
$GPGGA,150017.916,4728.5636,N,1902.2265,E,1,,,,,,,,*78
$GPRMC,150018.215,A,4728.5612,N,1902.2367,E,26.45,110.51,010517,,*08
$GPGGA,150018.215,4728.5612,N,1902.2367,E,1,,,,,,,,*7A
$GPRMC,150018.523,A,4728.5605,N,1902.2477,E,26.05,110.51,010517,,*0E
$GPGGA,150018.523,4728.5605,N,1902.2477,E,1,,,,,,,,*78
$GPRMC,150018.819,A,4728.5581,N,1902.2580,E,26.77,110.51,010517,,*09
$GPGGA,150018.819,4728.5581,N,1902.2580,E,1,,,,,,,,*7A
$GPRMC,150019.119,A,4728.5557,N,1902.2681,E,25.91,110.51,010517,,*03
$GPGGA,150019.119,4728.5557,N,1902.2681,E,1,,,,,,,,*7B
$GPRMC,150019.419,A,4728.5534,N,1902.2780,E,25.70,110.51,010517,,*0C
$GPGGA,150019.419,4728.5534,N,1902.2780,E,1,,,,,,,,*7B
$GPRMC,150019.720,A,4728.5511,N,1902.2879,E,25.60,110.51,010517,,*0A
$GPGGA,150019.720,4728.5511,N,1902.2879,E,1,,,,,,,,*7C
$GPRMC,150020.20,A,4728.5487,N,1902.2984,E,26.96,110.51,010517,,*30
$GPGGA,150020.20,4728.5487,N,1902.2984,E,1,,,,,,,,*4C
$GPRMC,150020.320,A,4728.5463,N,1902.3088,E,26.99,109.89,010517,,*0F
$GPGGA,150020.320,4728.5463,N,1902.3088,E,1,,,,,,,,*71
$GPRMC,150020.620,A,4728.5440,N,1902.3192,E,26.58,107.73,010517,,*07
$GPGGA,150020.620,4728.5440,N,1902.3192,E,1,,,,,,,,*7F
$GPRMC,150020.920,A,4728.5425,N,1902.3296,E,26.84,109.81,010517,,*0E
$GPGGA,150020.920,4728.5425,N,1902.3296,E,1,,,,,,,,*74
$GPRMC,150021.220,A,4728.5402,N,1902.3399,E,26.42,109.81,010517,,*05
$GPGGA,150021.220,4728.5402,N,1902.3399,E,1,,,,,,,,*75
$GPRMC,150021.520,A,4728.5379,N,1902.3502,E,26.56,109.81,010517,,*08
$GPGGA,150021.520,4728.5379,N,1902.3502,E,1,,,,,,,,*7D
$GPRMC,150021.820,A,4728.5356,N,1902.3602,E,25.82,109.81,010517,,*01
$GPGGA,150021.820,4728.5356,N,1902.3602,E,1,,,,,,,,*7E
$GPRMC,150022.120,A,4728.5333,N,1902.3704,E,26.04,109.81,010517,,*02
$GPGGA,150022.120,4728.5333,N,1902.3704,E,1,,,,,,,,*70
$GPRMC,150022.420,A,4728.5311,N,1902.3805,E,26.09,109.78,010517,,*02
$GPGGA,150022.420,4728.5311,N,1902.3805,E,1,,,,,,,,*7B
$GPRMC,150022.721,A,4728.5288,N,1902.3905,E,25.82,109.83,010517,,*04
$GPGGA,150022.721,4728.5288,N,1902.3905,E,1,,,,,,,,*79
$GPRMC,150023.21,A,4728.5266,N,1902.4005,E,25.68,109.83,010517,,*38
$GPGGA,150023.21,4728.5266,N,1902.4005,E,1,,,,,,,,*41
$GPRMC,150023.322,A,4728.5243,N,1902.4106,E,25.73,109.79,010517,,*02
$GPGGA,150023.322,4728.5243,N,1902.4106,E,1,,,,,,,,*74
$GPRMC,150023.622,A,4728.5219,N,1902.4215,E,26.19,109.66,010517,,*08
$GPGGA,150023.622,4728.5219,N,1902.4215,E,1,,,,,,,,*7F
$GPRMC,150023.922,A,4728.5215,N,1902.4308,E,22.36,86.41,010517,,*3C
$GPGGA,150023.922,4728.5215,N,1902.4308,E,1,,,,,,,,*71
$GPRMC,150024.221,A,4728.5216,N,1902.4318,E,14.50,83.83,010517,,*3F
$GPGGA,150024.221,4728.5216,N,1902.4318,E,1,,,,,,,,*7C
$GPRMC,150024.521,A,4728.5220,N,1902.4353,E,16.36,81.87,010517,,*36
$GPGGA,150024.521,4728.5220,N,1902.4353,E,1,,,,,,,,*71
$GPRMC,150024.822,A,4728.5231,N,1902.4430,E,19.20,77.98,010517,,*35
$GPGGA,150024.822,4728.5231,N,1902.4430,E,1,,,,,,,,*7D
$GPRMC,150025.122,A,4728.5250,N,1902.4513,E,21.18,71.79,010517,,*33
$GPGGA,150025.122,4728.5250,N,1902.4513,E,1,,,,,,,,*72
$GPRMC,150025.422,A,4728.5276,N,1902.4600,E,22.92,65.45,010517,,*38
$GPGGA,150025.422,4728.5276,N,1902.4600,E,1,,,,,,,,*72
$GPRMC,150025.722,A,4728.5308,N,1902.4691,E,24.79,62.68,010517,,*30
$GPGGA,150025.722,4728.5308,N,1902.4691,E,1,,,,,,,,*71
$GPRMC,150026.22,A,4728.5342,N,1902.4783,E,25.64,62.68,010517,,*05
$GPGGA,150026.22,4728.5342,N,1902.4783,E,1,,,,,,,,*49
$GPRMC,150026.322,A,4728.5377,N,1902.4877,E,26.32,63.32,010517,,*3A
$GPGGA,150026.322,4728.5377,N,1902.4877,E,1,,,,,,,,*78
$GPRMC,150026.622,A,4728.5411,N,1902.4973,E,26.47,63.39,010517,,*34
$GPGGA,150026.622,4728.5411,N,1902.4973,E,1,,,,,,,,*7F
$GPRMC,150026.922,A,4728.5446,N,1902.5069,E,26.53,63.39,010517,,*3F
$GPGGA,150026.922,4728.5446,N,1902.5069,E,1,,,,,,,,*71
$GPRMC,150027.241,A,4728.5480,N,1902.5163,E,25.99,63.39,010517,,*34
$GPGGA,150027.241,4728.5480,N,1902.5163,E,1,,,,,,,,*7F
$GPRMC,150027.523,A,4728.5514,N,1902.5258,E,26.36,63.39,010517,,*36
$GPGGA,150027.523,4728.5514,N,1902.5258,E,1,,,,,,,,*7B
$GPRMC,150027.823,A,4728.5549,N,1902.5355,E,26.81,63.39,010517,,*33
$GPGGA,150027.823,4728.5549,N,1902.5355,E,1,,,,,,,,*72
$GPRMC,150028.123,A,4728.5583,N,1902.5449,E,25.94,63.39,010517,,*3E
$GPGGA,150028.123,4728.5583,N,1902.5449,E,1,,,,,,,,*78
$GPRMC,150028.423,A,4728.5617,N,1902.5542,E,25.79,63.39,010517,,*3C
$GPGGA,150028.423,4728.5617,N,1902.5542,E,1,,,,,,,,*79
$GPRMC,150028.723,A,4728.5650,N,1902.5634,E,25.55,63.39,010517,,*30
$GPGGA,150028.723,4728.5650,N,1902.5634,E,1,,,,,,,,*7B
$GPRMC,150029.119,A,4728.5685,N,1902.5730,E,26.54,63.39,010517,,*31
$GPGGA,150029.119,4728.5685,N,1902.5730,E,1,,,,,,,,*78
$GPRMC,150029.323,A,4728.5719,N,1902.5824,E,26.01,63.41,010517,,*3B
$GPGGA,150029.323,4728.5719,N,1902.5824,E,1,,,,,,,,*7D
$GPRMC,150029.623,A,4728.5752,N,1902.5918,E,25.93,65.31,010517,,*36
$GPGGA,150029.623,4728.5752,N,1902.5918,E,1,,,,,,,,*79
$GPRMC,150029.923,A,4728.5692,N,1902.5916,E,25.85,196.11,010517,,*02
$GPGGA,150029.923,4728.5692,N,1902.5916,E,1,,,,,,,,*75
$GPRMC,150030.223,A,4728.5621,N,1902.5894,E,26.13,192.72,010517,,*0F
$GPGGA,150030.223,4728.5621,N,1902.5894,E,1,,,,,,,,*75
$GPRMC,150030.523,A,4728.5549,N,1902.5873,E,26.75,192.72,010517,,*0C
$GPGGA,150030.523,4728.5549,N,1902.5873,E,1,,,,,,,,*76
$GPRMC,150030.822,A,4728.5476,N,1902.5851,E,26.47,192.72,010517,,*0C
$GPGGA,150030.822,4728.5476,N,1902.5851,E,1,,,,,,,,*77
$GPRMC,150031.123,A,4728.5403,N,1902.5830,E,26.96,193.28,010517,,*02
$GPGGA,150031.123,4728.5403,N,1902.5830,E,1,,,,,,,,*7B
$GPRMC,150031.423,A,4728.5333,N,1902.5807,E,25.84,193.94,010517,,*00
$GPGGA,150031.423,4728.5333,N,1902.5807,E,1,,,,,,,,*7E
$GPRMC,150031.723,A,4728.5263,N,1902.5784,E,25.83,193.94,010517,,*04
$GPGGA,150031.723,4728.5263,N,1902.5784,E,1,,,,,,,,*7D
$GPRMC,150032.23,A,4728.5193,N,1902.5761,E,25.98,193.94,010517,,*3D
$GPGGA,150032.23,4728.5193,N,1902.5761,E,1,,,,,,,,*4E
$GPRMC,150032.323,A,4728.5123,N,1902.5738,E,25.68,193.94,010517,,*06
$GPGGA,150032.323,4728.5123,N,1902.5738,E,1,,,,,,,,*7A
$GPRMC,150032.623,A,4728.5068,N,1902.5720,E,20.17,193.94,010517,,*09
$GPGGA,150032.623,4728.5068,N,1902.5720,E,1,,,,,,,,*78
$GPRMC,150032.923,A,4728.5032,N,1902.5709,E,13.18,192.99,010517,,*01
$GPGGA,150032.923,4728.5032,N,1902.5709,E,1,,,,,,,,*73
$GPRMC,150033.223,A,4728.4992,N,1902.5698,E,14.79,191.40,010517,,*07
$GPGGA,150033.223,4728.4992,N,1902.5698,E,1,,,,,,,,*72
$GPRMC,150033.522,A,4728.4946,N,1902.5686,E,16.99,191.30,010517,,*0C
$GPGGA,150033.522,4728.4946,N,1902.5686,E,1,,,,,,,,*72
$GPRMC,150033.823,A,4728.4916,N,1902.5680,E,10.69,190.41,010517,,*0D
$GPGGA,150033.823,4728.4916,N,1902.5680,E,1,,,,,,,,*7D
$GPRMC,150034.123,A,4728.4878,N,1902.5677,E,12.83,181.89,010517,,*00
$GPGGA,150034.123,4728.4878,N,1902.5677,E,1,,,,,,,,*72
$GPRMC,150034.423,A,4728.4854,N,1902.5726,E,14.42,113.85,010517,,*02
$GPGGA,150034.423,4728.4854,N,1902.5726,E,1,,,,,,,,*7C
$GPRMC,150034.723,A,4728.4840,N,1902.5790,E,16.47,110.32,010517,,*01
$GPGGA,150034.723,4728.4840,N,1902.5790,E,1,,,,,,,,*77
$GPRMC,150035.23,A,4728.4823,N,1902.5860,E,17.96,110.32,010517,,*3F
$GPGGA,150035.23,4728.4823,N,1902.5860,E,1,,,,,,,,*44
$GPRMC,150035.323,A,4728.4805,N,1902.5940,E,20.80,110.32,010517,,*08
$GPGGA,150035.323,4728.4805,N,1902.5940,E,1,,,,,,,,*70
$GPRMC,150035.622,A,4728.4784,N,1902.6029,E,22.76,110.32,010517,,*04
$GPGGA,150035.622,4728.4784,N,1902.6029,E,1,,,,,,,,*77
$GPRMC,150035.923,A,4728.4762,N,1902.6123,E,24.37,110.32,010517,,*0A
$GPGGA,150035.923,4728.4762,N,1902.6123,E,1,,,,,,,,*7A
$GPRMC,150036.223,A,4728.4739,N,1902.6223,E,25.82,110.32,010517,,*00
$GPGGA,150036.223,4728.4739,N,1902.6223,E,1,,,,,,,,*7F
$GPRMC,150036.524,A,4728.4716,N,1902.6324,E,25.94,110.32,010517,,*0C
$GPGGA,150036.524,4728.4716,N,1902.6324,E,1,,,,,,,,*74
$GPRMC,150036.823,A,4728.4692,N,1902.6428,E,26.85,110.32,010517,,*03
$GPGGA,150036.823,4728.4692,N,1902.6428,E,1,,,,,,,,*78
$GPRMC,150037.123,A,4728.4669,N,1902.6528,E,25.81,110.31,010517,,*0A
$GPGGA,150037.123,4728.4669,N,1902.6528,E,1,,,,,,,,*75
$GPRMC,150037.423,A,4728.4645,N,1902.6631,E,26.65,110.31,010517,,*03
$GPGGA,150037.423,4728.4645,N,1902.6631,E,1,,,,,,,,*75
$GPRMC,150037.724,A,4728.4621,N,1902.6733,E,26.27,110.31,010517,,*00
$GPGGA,150037.724,4728.4621,N,1902.6733,E,1,,,,,,,,*70
$GPRMC,150038.23,A,4728.4597,N,1902.6835,E,26.45,110.31,010517,,*3C
$GPGGA,150038.23,4728.4597,N,1902.6835,E,1,,,,,,,,*48
$GPRMC,150038.324,A,4728.4574,N,1902.6935,E,25.82,110.31,010517,,*0C
$GPGGA,150038.324,4728.4574,N,1902.6935,E,1,,,,,,,,*70
$GPRMC,150038.625,A,4728.4551,N,1902.7036,E,25.98,110.31,010517,,*0F
$GPGGA,150038.625,4728.4551,N,1902.7036,E,1,,,,,,,,*78
$GPRMC,150038.925,A,4728.4527,N,1902.7140,E,26.86,110.17,010517,,*09
$GPGGA,150038.925,4728.4527,N,1902.7140,E,1,,,,,,,,*76
$GPRMC,150039.224,A,4728.4503,N,1902.7242,E,26.29,110.09,010517,,*0F
$GPGGA,150039.224,4728.4503,N,1902.7242,E,1,,,,,,,,*7A
$GPRMC,150039.525,A,4728.4463,N,1902.7337,E,26.68,110.09,010517,,*08
$GPGGA,150039.525,4728.4463,N,1902.7337,E,1,,,,,,,,*78
$GPRMC,150039.825,A,4728.4439,N,1902.7440,E,26.39,110.09,010517,,*09
$GPGGA,150039.825,4728.4439,N,1902.7440,E,1,,,,,,,,*7D
$GPRMC,150040.125,A,4728.4416,N,1902.7543,E,26.62,110.09,010517,,*0F
$GPGGA,150040.125,4728.4416,N,1902.7543,E,1,,,,,,,,*75
$GPRMC,150040.425,A,4728.4398,N,1902.7623,E,20.47,110.09,010517,,*0F
$GPGGA,150040.425,4728.4398,N,1902.7623,E,1,,,,,,,,*74
$GPRMC,150040.725,A,4728.4387,N,1902.7673,E,12.44,108.08,010517,,*0D
$GPGGA,150040.725,4728.4387,N,1902.7673,E,1,,,,,,,,*7C
$GPRMC,150041.24,A,4728.4384,N,1902.7690,E,03.95,106.65,010517,,*3D
$GPGGA,150041.24,4728.4384,N,1902.7690,E,1,,,,,,,,*45
$GPRMC,150041.324,A,4728.4383,N,1902.7693,E,00.85,106.44,010517,,*0B
$GPGGA,150041.324,4728.4383,N,1902.7693,E,1,,,,,,,,*72
$GPRMC,150041.625,A,4728.4383,N,1902.7694,E,00.18,106.44,010517,,*0C
$GPGGA,150041.625,4728.4383,N,1902.7694,E,1,,,,,,,,*71
$GPRMC,150041.925,A,4728.4383,N,1902.7694,E,00.05,106.44,010517,,*0F
$GPGGA,150041.925,4728.4383,N,1902.7694,E,1,,,,,,,,*7E
$GPRMC,150042.225,A,4728.4383,N,1902.7694,E,00.02,106.44,010517,,*00
$GPGGA,150042.225,4728.4383,N,1902.7694,E,1,,,,,,,,*76
$GPRMC,150042.525,A,4728.4383,N,1902.7694,E,00.01,106.44,010517,,*04
$GPGGA,150042.525,4728.4383,N,1902.7694,E,1,,,,,,,,*71
$GPRMC,150042.825,A,4728.4383,N,1902.7694,E,00.00,106.44,010517,,*08
$GPGGA,150042.825,4728.4383,N,1902.7694,E,1,,,,,,,,*7C
$GPRMC,150043.124,A,4728.4383,N,1902.7694,E,00.00,106.44,010517,,*01
$GPGGA,150043.124,4728.4383,N,1902.7694,E,1,,,,,,,,*75
$GPRMC,150043.424,A,4728.4383,N,1902.7694,E,00.00,106.44,010517,,*04
$GPGGA,150043.424,4728.4383,N,1902.7694,E,1,,,,,,,,*70
$GPRMC,150043.724,A,4728.4383,N,1902.7694,E,00.00,106.44,010517,,*07
$GPGGA,150043.724,4728.4383,N,1902.7694,E,1,,,,,,,,*73
$GPRMC,150044.25,A,4728.4383,N,1902.7694,E,00.00,106.44,010517,,*36
$GPGGA,150044.25,4728.4383,N,1902.7694,E,1,,,,,,,,*42
$GPRMC,150044.325,A,4728.4383,N,1902.7694,E,00.00,106.44,010517,,*05
$GPGGA,150044.325,4728.4383,N,1902.7694,E,1,,,,,,,,*71
$GPRMC,150044.624,A,4728.4383,N,1902.7694,E,00.00,106.44,010517,,*01
$GPGGA,150044.624,4728.4383,N,1902.7694,E,1,,,,,,,,*75
$GPRMC,150044.925,A,4728.4383,N,1902.7694,E,00.00,106.44,010517,,*0F
$GPGGA,150044.925,4728.4383,N,1902.7694,E,1,,,,,,,,*7B
$GPRMC,150045.226,A,4728.4383,N,1902.7694,E,00.00,106.44,010517,,*06
$GPGGA,150045.226,4728.4383,N,1902.7694,E,1,,,,,,,,*72
$GPRMC,150045.525,A,4728.4383,N,1902.7694,E,00.00,106.44,010517,,*02
$GPGGA,150045.525,4728.4383,N,1902.7694,E,1,,,,,,,,*76
$GPRMC,150045.825,A,4728.4383,N,1902.7694,E,00.00,106.44,010517,,*0F
$GPGGA,150045.825,4728.4383,N,1902.7694,E,1,,,,,,,,*7B
$GPRMC,150046.125,A,4728.4383,N,1902.7694,E,00.00,106.44,010517,,*05
$GPGGA,150046.125,4728.4383,N,1902.7694,E,1,,,,,,,,*71
$GPRMC,150046.424,A,4728.4383,N,1902.7694,E,00.00,106.44,010517,,*01
$GPGGA,150046.424,4728.4383,N,1902.7694,E,1,,,,,,,,*75
$GPRMC,150046.725,A,4728.4383,N,1902.7694,E,00.00,106.44,010517,,*03
$GPGGA,150046.725,4728.4383,N,1902.7694,E,1,,,,,,,,*77
$GPRMC,150047.26,A,4728.4383,N,1902.7694,E,00.00,106.44,010517,,*36
$GPGGA,150047.26,4728.4383,N,1902.7694,E,1,,,,,,,,*42
$GPRMC,150047.327,A,4728.4383,N,1902.7694,E,00.00,106.44,010517,,*04
$GPGGA,150047.327,4728.4383,N,1902.7694,E,1,,,,,,,,*70
$GPRMC,150047.627,A,4728.4383,N,1902.7694,E,00.00,106.44,010517,,*01
$GPGGA,150047.627,4728.4383,N,1902.7694,E,1,,,,,,,,*75
$GPRMC,150047.927,A,4728.4383,N,1902.7694,E,00.00,106.44,010517,,*0E
$GPGGA,150047.927,4728.4383,N,1902.7694,E,1,,,,,,,,*7A
$GPRMC,150048.227,A,4728.4383,N,1902.7694,E,00.00,106.44,010517,,*0A
$GPGGA,150048.227,4728.4383,N,1902.7694,E,1,,,,,,,,*7E
$GPRMC,150048.527,A,4728.4383,N,1902.7694,E,00.00,106.44,010517,,*0D
$GPGGA,150048.527,4728.4383,N,1902.7694,E,1,,,,,,,,*79
$GPRMC,150048.826,A,4728.4383,N,1902.7694,E,00.00,106.44,010517,,*01
$GPGGA,150048.826,4728.4383,N,1902.7694,E,1,,,,,,,,*75
$GPRMC,150049.126,A,4728.4383,N,1902.7694,E,00.00,106.44,010517,,*09
$GPGGA,150049.126,4728.4383,N,1902.7694,E,1,,,,,,,,*7D
$GPRMC,150049.427,A,4728.4383,N,1902.7694,E,00.00,106.44,010517,,*0D
$GPGGA,150049.427,4728.4383,N,1902.7694,E,1,,,,,,,,*79
$GPRMC,150049.726,A,4728.4383,N,1902.7694,E,00.00,106.44,010517,,*0F
$GPGGA,150049.726,4728.4383,N,1902.7694,E,1,,,,,,,,*7B
$GPRMC,150050.27,A,4728.4383,N,1902.7694,E,00.00,106.44,010517,,*31
$GPGGA,150050.27,4728.4383,N,1902.7694,E,1,,,,,,,,*45
$GPRMC,150050.326,A,4728.4383,N,1902.7694,E,00.00,106.44,010517,,*03
$GPGGA,150050.326,4728.4383,N,1902.7694,E,1,,,,,,,,*77
$GPRMC,150050.627,A,4728.4383,N,1902.7694,E,00.00,106.44,010517,,*07
$GPGGA,150050.627,4728.4383,N,1902.7694,E,1,,,,,,,,*73
$GPRMC,150050.927,A,4728.4383,N,1902.7694,E,00.00,106.44,010517,,*08
$GPGGA,150050.927,4728.4383,N,1902.7694,E,1,,,,,,,,*7C
$GPRMC,150051.227,A,4728.4383,N,1902.7694,E,00.00,106.44,010517,,*02
$GPGGA,150051.227,4728.4383,N,1902.7694,E,1,,,,,,,,*76
$GPRMC,150051.527,A,4728.4383,N,1902.7694,E,00.00,106.44,010517,,*05
$GPGGA,150051.527,4728.4383,N,1902.7694,E,1,,,,,,,,*71
$GPRMC,150051.827,A,4728.4383,N,1902.7694,E,00.00,106.44,010517,,*08
$GPGGA,150051.827,4728.4383,N,1902.7694,E,1,,,,,,,,*7C
$GPRMC,150052.127,A,4728.4383,N,1902.7694,E,00.00,106.44,010517,,*02
$GPGGA,150052.127,4728.4383,N,1902.7694,E,1,,,,,,,,*76
$GPRMC,150052.427,A,4728.4383,N,1902.7694,E,00.00,106.44,010517,,*07
$GPGGA,150052.427,4728.4383,N,1902.7694,E,1,,,,,,,,*73
$GPRMC,150052.727,A,4728.4383,N,1902.7694,E,00.00,106.44,010517,,*04
$GPGGA,150052.727,4728.4383,N,1902.7694,E,1,,,,,,,,*70
$GPRMC,150053.27,A,4728.4383,N,1902.7694,E,00.00,106.44,010517,,*32
$GPGGA,150053.27,4728.4383,N,1902.7694,E,1,,,,,,,,*46
$GPRMC,150053.326,A,4728.4382,N,1902.7703,E,02.08,105.86,010517,,*09
$GPGGA,150053.326,4728.4382,N,1902.7703,E,1,,,,,,,,*7A
$GPRMC,150053.627,A,4728.4380,N,1902.7719,E,03.97,103.92,010517,,*00
$GPGGA,150053.627,4728.4380,N,1902.7719,E,1,,,,,,,,*77
$GPRMC,150053.927,A,4728.4377,N,1902.7741,E,05.46,101.60,010517,,*0F
$GPGGA,150053.927,4728.4377,N,1902.7741,E,1,,,,,,,,*7D
$GPRMC,150054.227,A,4728.4374,N,1902.7770,E,06.99,101.59,010517,,*09
$GPGGA,150054.227,4728.4374,N,1902.7770,E,1,,,,,,,,*70
$GPRMC,150054.527,A,4728.4370,N,1902.7806,E,08.98,101.03,010517,,*04
$GPGGA,150054.527,4728.4370,N,1902.7806,E,1,,,,,,,,*7D
$GPRMC,150054.826,A,4728.4365,N,1902.7849,E,10.55,100.71,010517,,*0B
$GPGGA,150054.826,4728.4365,N,1902.7849,E,1,,,,,,,,*7E
$GPRMC,150055.126,A,4728.4360,N,1902.7898,E,12.17,100.71,010517,,*0E
$GPGGA,150055.126,4728.4360,N,1902.7898,E,1,,,,,,,,*7F
$GPRMC,150055.427,A,4728.4353,N,1902.7956,E,14.48,100.72,010517,,*06
$GPGGA,150055.427,4728.4353,N,1902.7956,E,1,,,,,,,,*78
$GPRMC,150055.727,A,4728.4346,N,1902.8024,E,16.68,100.72,010517,,*02
$GPGGA,150055.727,4728.4346,N,1902.8024,E,1,,,,,,,,*7C
$GPRMC,150056.27,A,4728.4338,N,1902.8102,E,19.10,99.08,010517,,*06
$GPGGA,150056.27,4728.4338,N,1902.8102,E,1,,,,,,,,*44
$GPRMC,150056.327,A,4728.4331,N,1902.8190,E,21.50,98.36,010517,,*34
$GPGGA,150056.327,4728.4331,N,1902.8190,E,1,,,,,,,,*75
$GPRMC,150056.627,A,4728.4323,N,1902.8284,E,23.30,98.36,010517,,*30
$GPGGA,150056.627,4728.4323,N,1902.8284,E,1,,,,,,,,*75
$GPRMC,150056.926,A,4728.4315,N,1902.8387,E,25.17,98.36,010517,,*3A
$GPGGA,150056.926,4728.4315,N,1902.8387,E,1,,,,,,,,*7C
$GPRMC,150057.226,A,4728.4306,N,1902.8495,E,26.51,98.36,010517,,*37
$GPGGA,150057.226,4728.4306,N,1902.8495,E,1,,,,,,,,*70
$GPRMC,150057.527,A,4728.4297,N,1902.8601,E,26.27,99.10,010517,,*33
$GPGGA,150057.527,4728.4297,N,1902.8601,E,1,,,,,,,,*70
$GPRMC,150057.826,A,4728.4286,N,1902.8710,E,26.88,99.81,010517,,*33
$GPGGA,150057.826,4728.4286,N,1902.8710,E,1,,,,,,,,*7D
$GPRMC,150058.127,A,4728.4275,N,1902.8818,E,26.67,99.58,010517,,*3A
$GPGGA,150058.127,4728.4275,N,1902.8818,E,1,,,,,,,,*71
$GPRMC,150058.427,A,4728.4265,N,1902.8922,E,25.69,99.58,010517,,*3B
$GPGGA,150058.427,4728.4265,N,1902.8922,E,1,,,,,,,,*7D
$GPRMC,150058.727,A,4728.4254,N,1902.9030,E,26.64,99.58,010517,,*3F
$GPGGA,150058.727,4728.4254,N,1902.9030,E,1,,,,,,,,*77
$GPRMC,150059.27,A,4728.4244,N,1902.9135,E,25.85,99.58,010517,,*00
$GPGGA,150059.27,4728.4244,N,1902.9135,E,1,,,,,,,,*44
$GPRMC,150059.327,A,4728.4226,N,1902.9234,E,25.84,98.87,010517,,*37
$GPGGA,150059.327,4728.4226,N,1902.9234,E,1,,,,,,,,*71
$GPRMC,150059.629,A,4728.4217,N,1902.9339,E,25.95,98.87,010517,,*32
$GPGGA,150059.629,4728.4217,N,1902.9339,E,1,,,,,,,,*74
$GPRMC,150059.927,A,4728.4208,N,1902.9446,E,26.28,98.87,010517,,*37
$GPGGA,150059.927,4728.4208,N,1902.9446,E,1,,,,,,,,*74
$GPRMC,150100.227,A,4728.4198,N,1902.9553,E,26.35,98.87,010517,,*32
$GPGGA,150100.227,4728.4198,N,1902.9553,E,1,,,,,,,,*7D
$GPRMC,150100.527,A,4728.4189,N,1902.9657,E,25.67,98.87,010517,,*36
$GPGGA,150100.527,4728.4189,N,1902.9657,E,1,,,,,,,,*7D
$GPRMC,150100.827,A,4728.4179,N,1902.9761,E,25.91,99.94,010517,,*3A
$GPGGA,150100.827,4728.4179,N,1902.9761,E,1,,,,,,,,*7B
$GPRMC,150101.127,A,4728.4176,N,1902.9865,E,25.62,90.04,010517,,*3A
$GPGGA,150101.127,4728.4176,N,1902.9865,E,1,,,,,,,,*77
$GPRMC,150101.427,A,4728.4166,N,1902.9971,E,26.04,99.92,010517,,*3F
$GPGGA,150101.427,4728.4166,N,1902.9971,E,1,,,,,,,,*77
$GPRMC,150101.727,A,4728.4155,N,1903.0077,E,26.22,99.92,010517,,*3F
$GPGGA,150101.727,4728.4155,N,1903.0077,E,1,,,,,,,,*73
$GPRMC,150102.27,A,4728.4144,N,1903.0184,E,26.47,99.92,010517,,*05
$GPGGA,150102.27,4728.4144,N,1903.0184,E,1,,,,,,,,*4A
$GPRMC,150102.327,A,4728.4133,N,1903.0292,E,26.63,99.92,010517,,*34
$GPGGA,150102.327,4728.4133,N,1903.0292,E,1,,,,,,,,*7D
$GPRMC,150102.627,A,4728.4123,N,1903.0399,E,26.45,99.92,010517,,*3E
$GPGGA,150102.627,4728.4123,N,1903.0399,E,1,,,,,,,,*73
$GPRMC,150102.927,A,4728.4112,N,1903.0504,E,25.95,99.92,010517,,*3F
$GPGGA,150102.927,4728.4112,N,1903.0504,E,1,,,,,,,,*7C
$GPRMC,150103.227,A,4728.4101,N,1903.0610,E,26.05,99.92,010517,,*3B
$GPGGA,150103.227,4728.4101,N,1903.0610,E,1,,,,,,,,*72
$GPRMC,150103.527,A,4728.4090,N,1903.0717,E,26.46,99.92,010517,,*34
$GPGGA,150103.527,4728.4090,N,1903.0717,E,1,,,,,,,,*7A
$GPRMC,150103.826,A,4728.4079,N,1903.0826,E,26.92,99.92,010517,,*3B
$GPGGA,150103.826,4728.4079,N,1903.0826,E,1,,,,,,,,*7C
$GPRMC,150104.127,A,4728.4069,N,1903.0933,E,26.27,99.41,010517,,*30
$GPGGA,150104.127,4728.4069,N,1903.0933,E,1,,,,,,,,*77
$GPRMC,150104.427,A,4728.4061,N,1903.1044,E,26.89,97.42,010517,,*3C
$GPGGA,150104.427,4728.4061,N,1903.1044,E,1,,,,,,,,*72
$GPRMC,150104.727,A,4728.4053,N,1903.1153,E,26.67,97.42,010517,,*39
$GPGGA,150104.727,4728.4053,N,1903.1153,E,1,,,,,,,,*77
$GPRMC,150105.26,A,4728.4052,N,1903.1264,E,26.87,89.67,010517,,*0E
$GPGGA,150105.26,4728.4052,N,1903.1264,E,1,,,,,,,,*46
$GPRMC,150105.327,A,4728.4057,N,1903.1378,E,26.48,84.93,010517,,*30
$GPGGA,150105.327,4728.4057,N,1903.1378,E,1,,,,,,,,*7D
$GPRMC,150105.627,A,4728.4072,N,1903.1481,E,25.83,78.07,010517,,*39
$GPGGA,150105.627,4728.4072,N,1903.1481,E,1,,,,,,,,*7E
$GPRMC,150105.927,A,4728.4102,N,1903.1580,E,26.05,69.00,010517,,*3A
$GPGGA,150105.927,4728.4102,N,1903.1580,E,1,,,,,,,,*77
$GPRMC,150106.226,A,4728.4136,N,1903.1681,E,26.90,58.92,010517,,*33
$GPGGA,150106.226,4728.4136,N,1903.1681,E,1,,,,,,,,*7B
$GPRMC,150106.527,A,4728.4176,N,1903.1772,E,26.54,58.84,010517,,*33
$GPGGA,150106.527,4728.4176,N,1903.1772,E,1,,,,,,,,*74
$GPRMC,150106.827,A,4728.4216,N,1903.1864,E,26.67,58.84,010517,,*33
$GPGGA,150106.827,4728.4216,N,1903.1864,E,1,,,,,,,,*74
$GPRMC,150107.126,A,4728.4255,N,1903.1954,E,25.88,58.84,010517,,*3D
$GPGGA,150107.126,4728.4255,N,1903.1954,E,1,,,,,,,,*78
$GPRMC,150107.427,A,4728.4298,N,1903.2044,E,26.78,55.46,010517,,*3C
$GPGGA,150107.427,4728.4298,N,1903.2044,E,1,,,,,,,,*76
$GPRMC,150107.727,A,4728.4340,N,1903.2130,E,25.86,55.46,010517,,*3B
$GPGGA,150107.727,4728.4340,N,1903.2130,E,1,,,,,,,,*73
$GPRMC,150108.27,A,4728.4382,N,1903.2216,E,26.01,55.46,010517,,*06
$GPGGA,150108.27,4728.4382,N,1903.2216,E,1,,,,,,,,*42
$GPRMC,150108.327,A,4728.4424,N,1903.2301,E,25.76,55.43,010517,,*3F
$GPGGA,150108.327,4728.4424,N,1903.2301,E,1,,,,,,,,*7D
$GPRMC,150108.626,A,4728.4469,N,1903.2390,E,26.82,55.13,010517,,*37
$GPGGA,150108.626,4728.4469,N,1903.2390,E,1,,,,,,,,*78
$GPRMC,150108.927,A,4728.4510,N,1903.2475,E,25.62,55.82,010517,,*3F
$GPGGA,150108.927,4728.4510,N,1903.2475,E,1,,,,,,,,*75
$GPRMC,150109.228,A,4728.4553,N,1903.2563,E,26.62,55.82,010517,,*38
$GPGGA,150109.228,4728.4553,N,1903.2563,E,1,,,,,,,,*71
$GPRMC,150109.527,A,4728.4596,N,1903.2653,E,26.84,55.73,010517,,*3F
$GPGGA,150109.527,4728.4596,N,1903.2653,E,1,,,,,,,,*70
$GPRMC,150109.827,A,4728.4639,N,1903.2741,E,26.36,55.85,010517,,*36
$GPGGA,150109.827,4728.4639,N,1903.2741,E,1,,,,,,,,*79
$GPRMC,150110.128,A,4728.4681,N,1903.2826,E,25.67,55.85,010517,,*32
$GPGGA,150110.128,4728.4681,N,1903.2826,E,1,,,,,,,,*7A
$GPRMC,150110.427,A,4728.4724,N,1903.2916,E,26.84,56.47,010517,,*37
$GPGGA,150110.427,4728.4724,N,1903.2916,E,1,,,,,,,,*7C
$GPRMC,150110.728,A,4728.4766,N,1903.3005,E,26.51,56.47,010517,,*3F
$GPGGA,150110.728,4728.4766,N,1903.3005,E,1,,,,,,,,*7C
$GPRMC,150111.28,A,4728.4808,N,1903.3094,E,26.54,56.47,010517,,*03
$GPGGA,150111.28,4728.4808,N,1903.3094,E,1,,,,,,,,*45
$GPRMC,150111.328,A,4728.4849,N,1903.3180,E,25.80,56.47,010517,,*3B
$GPGGA,150111.328,4728.4849,N,1903.3180,E,1,,,,,,,,*77
$GPRMC,150111.629,A,4728.4891,N,1903.3269,E,26.49,56.47,010517,,*38
$GPGGA,150111.629,4728.4891,N,1903.3269,E,1,,,,,,,,*72
$GPRMC,150111.928,A,4728.4932,N,1903.3356,E,25.69,56.47,010517,,*32
$GPGGA,150111.928,4728.4932,N,1903.3356,E,1,,,,,,,,*79
$GPRMC,150112.229,A,4728.4973,N,1903.3442,E,25.89,56.47,010517,,*32
$GPGGA,150112.229,4728.4973,N,1903.3442,E,1,,,,,,,,*77
$GPRMC,150112.529,A,4728.4985,N,1903.3542,E,26.94,102.54,010517,,*00
$GPGGA,150112.529,4728.4985,N,1903.3542,E,1,,,,,,,,*78
$GPRMC,150112.828,A,4728.4979,N,1903.3620,E,19.25,102.23,010517,,*0E
$GPGGA,150112.828,4728.4979,N,1903.3620,E,1,,,,,,,,*70
$GPRMC,150113.129,A,4728.4970,N,1903.3660,E,10.50,110.27,010517,,*06
$GPGGA,150113.129,4728.4970,N,1903.3660,E,1,,,,,,,,*74
$GPRMC,150113.429,A,4728.4950,N,1903.3697,E,12.06,133.01,010517,,*0D
$GPGGA,150113.429,4728.4950,N,1903.3697,E,1,,,,,,,,*7B
$GPRMC,150113.728,A,4728.4911,N,1903.3717,E,14.54,162.23,010517,,*06
$GPGGA,150113.728,4728.4911,N,1903.3717,E,1,,,,,,,,*75
$GPRMC,150114.29,A,4728.4867,N,1903.3740,E,16.98,162.23,010517,,*37
$GPGGA,150114.29,4728.4867,N,1903.3740,E,1,,,,,,,,*46
$GPRMC,150114.329,A,4728.4817,N,1903.3766,E,18.99,162.16,010517,,*0E
$GPGGA,150114.329,4728.4817,N,1903.3766,E,1,,,,,,,,*76
$GPRMC,150114.628,A,4728.4761,N,1903.3794,E,21.28,162.84,010517,,*02
$GPGGA,150114.628,4728.4761,N,1903.3794,E,1,,,,,,,,*71
$GPRMC,150114.928,A,4728.4698,N,1903.3825,E,24.07,163.49,010517,,*07
$GPGGA,150114.928,4728.4698,N,1903.3825,E,1,,,,,,,,*7C
$GPRMC,150115.229,A,4728.4628,N,1903.3858,E,26.59,163.48,010517,,*05
$GPGGA,150115.229,4728.4628,N,1903.3858,E,1,,,,,,,,*76
$GPRMC,150115.529,A,4728.4557,N,1903.3892,E,26.79,163.48,010517,,*0D
$GPGGA,150115.529,4728.4557,N,1903.3892,E,1,,,,,,,,*7C
$GPRMC,150115.829,A,4728.4489,N,1903.3925,E,25.85,163.48,010517,,*0F
$GPGGA,150115.829,4728.4489,N,1903.3925,E,1,,,,,,,,*7E
$GPRMC,150116.128,A,4728.4420,N,1903.3958,E,26.25,163.48,010517,,*04
$GPGGA,150116.128,4728.4420,N,1903.3958,E,1,,,,,,,,*7C
$GPRMC,150116.428,A,4728.4349,N,1903.3983,E,26.34,169.00,010517,,*09
$GPGGA,150116.428,4728.4349,N,1903.3983,E,1,,,,,,,,*77
$GPRMC,150116.729,A,4728.4279,N,1903.4002,E,26.00,172.64,010517,,*01
$GPGGA,150116.729,4728.4279,N,1903.4002,E,1,,,,,,,,*70
$GPRMC,150117.28,A,4728.4205,N,1903.4006,E,26.88,182.77,010517,,*34
$GPGGA,150117.28,4728.4205,N,1903.4006,E,1,,,,,,,,*48
$GPRMC,150117.329,A,4728.4134,N,1903.3997,E,25.75,187.98,010517,,*04
$GPGGA,150117.329,4728.4134,N,1903.3997,E,1,,,,,,,,*7D
$GPRMC,150117.629,A,4728.4062,N,1903.3976,E,26.90,194.13,010517,,*05
$GPGGA,150117.629,4728.4062,N,1903.3976,E,1,,,,,,,,*75
$GPRMC,150117.928,A,4728.3992,N,1903.3950,E,26.06,196.87,010517,,*0E
$GPGGA,150117.928,4728.3992,N,1903.3950,E,1,,,,,,,,*7E
$GPRMC,150118.229,A,4728.3925,N,1903.3908,E,26.52,205.87,010517,,*02
$GPGGA,150118.229,4728.3925,N,1903.3908,E,1,,,,,,,,*7A
$GPRMC,150118.529,A,4728.3862,N,1903.3858,E,26.15,211.76,010517,,*0B
$GPGGA,150118.529,4728.3862,N,1903.3858,E,1,,,,,,,,*7B
$GPRMC,150118.828,A,4728.3803,N,1903.3792,E,26.72,221.64,010517,,*08
$GPGGA,150118.828,4728.3803,N,1903.3792,E,1,,,,,,,,*79
$GPRMC,150119.129,A,4728.3752,N,1903.3719,E,25.96,227.82,010517,,*0E
$GPGGA,150119.129,4728.3752,N,1903.3719,E,1,,,,,,,,*78
$GPRMC,150119.430,A,4728.3705,N,1903.3640,E,25.78,231.83,010517,,*0A
$GPGGA,150119.430,4728.3705,N,1903.3640,E,1,,,,,,,,*7A
$GPRMC,150119.730,A,4728.3661,N,1903.3554,E,26.63,236.81,010517,,*00
$GPGGA,150119.730,4728.3661,N,1903.3554,E,1,,,,,,,,*7C
$GPRMC,150120.29,A,4728.3619,N,1903.3464,E,26.91,236.81,010517,,*35
$GPGGA,150120.29,4728.3619,N,1903.3464,E,1,,,,,,,,*44
$GPRMC,150120.330,A,4728.3578,N,1903.3378,E,25.69,236.81,010517,,*04
$GPGGA,150120.330,4728.3578,N,1903.3378,E,1,,,,,,,,*71
$GPRMC,150120.629,A,4728.3537,N,1903.3291,E,26.19,236.81,010517,,*00
$GPGGA,150120.629,4728.3537,N,1903.3291,E,1,,,,,,,,*71
$GPRMC,150120.929,A,4728.3496,N,1903.3203,E,26.36,236.81,010517,,*03
$GPGGA,150120.929,4728.3496,N,1903.3203,E,1,,,,,,,,*7F
$GPRMC,150121.230,A,4728.3455,N,1903.3115,E,26.17,236.81,010517,,*09
$GPGGA,150121.230,4728.3455,N,1903.3115,E,1,,,,,,,,*76
$GPRMC,150121.530,A,4728.3413,N,1903.3025,E,26.97,236.81,010517,,*06
$GPGGA,150121.530,4728.3413,N,1903.3025,E,1,,,,,,,,*71
$GPRMC,150121.829,A,4728.3373,N,1903.2936,E,26.33,238.13,010517,,*03
$GPGGA,150121.829,4728.3373,N,1903.2936,E,1,,,,,,,,*7F
$GPRMC,150122.130,A,4728.3334,N,1903.2848,E,25.60,238.58,010517,,*00
$GPGGA,150122.130,4728.3334,N,1903.2848,E,1,,,,,,,,*76
$GPRMC,150122.430,A,4728.3292,N,1903.2762,E,25.62,234.15,010517,,*08
$GPGGA,150122.430,4728.3292,N,1903.2762,E,1,,,,,,,,*79
$GPRMC,150122.729,A,4728.3245,N,1903.2680,E,26.05,229.05,010517,,*0B
$GPGGA,150122.729,4728.3245,N,1903.2680,E,1,,,,,,,,*75
$GPRMC,150123.30,A,4728.3194,N,1903.2600,E,26.50,227.78,010517,,*36
$GPGGA,150123.30,4728.3194,N,1903.2600,E,1,,,,,,,,*4C
$GPRMC,150123.329,A,4728.3139,N,1903.2529,E,26.25,222.57,010517,,*08
$GPGGA,150123.329,4728.3139,N,1903.2529,E,1,,,,,,,,*78
$GPRMC,150123.630,A,4728.3084,N,1903.2462,E,25.71,219.95,010517,,*08
$GPGGA,150123.630,4728.3084,N,1903.2462,E,1,,,,,,,,*7C
$GPRMC,150123.929,A,4728.3026,N,1903.2397,E,26.01,217.53,010517,,*0A
$GPGGA,150123.929,4728.3026,N,1903.2397,E,1,,,,,,,,*7E
$GPRMC,150124.230,A,4728.2967,N,1903.2333,E,26.37,217.53,010517,,*08
$GPGGA,150124.230,4728.2967,N,1903.2333,E,1,,,,,,,,*79
$GPRMC,150124.529,A,4728.2905,N,1903.2275,E,26.29,213.79,010517,,*03
$GPGGA,150124.529,4728.2905,N,1903.2275,E,1,,,,,,,,*71
$GPRMC,150124.830,A,4728.2843,N,1903.2222,E,25.55,210.21,010517,,*01
$GPGGA,150124.830,4728.2843,N,1903.2222,E,1,,,,,,,,*75
$GPRMC,150125.130,A,4728.2781,N,1903.2171,E,25.65,210.21,010517,,*0E
$GPGGA,150125.130,4728.2781,N,1903.2171,E,1,,,,,,,,*79
$GPRMC,150125.429,A,4728.2716,N,1903.2123,E,25.83,208.27,010517,,*0D
$GPGGA,150125.429,4728.2716,N,1903.2123,E,1,,,,,,,,*7D
$GPRMC,150125.730,A,4728.2650,N,1903.2078,E,26.25,203.18,010517,,*02
$GPGGA,150125.730,4728.2650,N,1903.2078,E,1,,,,,,,,*7A
$GPRMC,150126.29,A,4728.2583,N,1903.2039,E,25.63,202.80,010517,,*37
$GPGGA,150126.29,4728.2583,N,1903.2039,E,1,,,,,,,,*4E
$GPRMC,150126.330,A,4728.2512,N,1903.2002,E,26.89,199.62,010517,,*06
$GPGGA,150126.330,4728.2512,N,1903.2002,E,1,,,,,,,,*75
$GPRMC,150126.630,A,4728.2444,N,1903.1966,E,26.28,203.07,010517,,*01
$GPGGA,150126.630,4728.2444,N,1903.1966,E,1,,,,,,,,*7A
$GPRMC,150126.930,A,4728.2423,N,1903.1903,E,17.53,252.68,010517,,*0F
$GPGGA,150126.930,4728.2423,N,1903.1903,E,1,,,,,,,,*77
$GPRMC,150127.229,A,4728.2423,N,1903.1866,E,09.30,270.30,010517,,*08
$GPGGA,150127.229,4728.2423,N,1903.1866,E,1,,,,,,,,*77
$GPRMC,150127.530,A,4728.2429,N,1903.1820,E,11.31,282.35,010517,,*0F
$GPGGA,150127.530,4728.2429,N,1903.1820,E,1,,,,,,,,*70
$GPRMC,150127.829,A,4728.2465,N,1903.1804,E,13.81,348.03,010517,,*0F
$GPGGA,150127.829,4728.2465,N,1903.1804,E,1,,,,,,,,*7B
$GPRMC,150128.130,A,4728.2506,N,1903.1790,E,15.36,348.03,010517,,*0D
$GPGGA,150128.130,4728.2506,N,1903.1790,E,1,,,,,,,,*73
$GPRMC,150128.430,A,4728.2554,N,1903.1773,E,17.61,348.03,010517,,*02
$GPGGA,150128.430,4728.2554,N,1903.1773,E,1,,,,,,,,*7C
$GPRMC,150128.733,A,4728.2608,N,1903.1754,E,19.92,348.03,010517,,*0F
$GPGGA,150128.733,4728.2608,N,1903.1754,E,1,,,,,,,,*73
$GPRMC,150129.31,A,4728.2666,N,1903.1734,E,21.73,348.03,010517,,*31
$GPGGA,150129.31,4728.2666,N,1903.1734,E,1,,,,,,,,*49
$GPRMC,150129.338,A,4728.2732,N,1903.1711,E,24.26,348.03,010517,,*09
$GPGGA,150129.338,4728.2732,N,1903.1711,E,1,,,,,,,,*74
$GPRMC,150129.631,A,4728.2803,N,1903.1686,E,26.15,348.03,010517,,*05
$GPGGA,150129.631,4728.2803,N,1903.1686,E,1,,,,,,,,*7A
$GPRMC,150129.930,A,4728.2875,N,1903.1660,E,26.86,348.03,010517,,*08
$GPGGA,150129.930,4728.2875,N,1903.1660,E,1,,,,,,,,*7D
$GPRMC,150130.230,A,4728.2937,N,1903.1639,E,22.87,348.03,010517,,*05
$GPGGA,150130.230,4728.2937,N,1903.1639,E,1,,,,,,,,*75
$GPRMC,150130.531,A,4728.2975,N,1903.1624,E,14.24,346.13,010517,,*0A
$GPGGA,150130.531,4728.2975,N,1903.1624,E,1,,,,,,,,*79
$GPRMC,150130.831,A,4728.2996,N,1903.1570,E,16.25,285.75,010517,,*05
$GPGGA,150130.831,4728.2996,N,1903.1570,E,1,,,,,,,,*7B
$GPRMC,150131.131,A,4728.3001,N,1903.1495,E,18.49,276.83,010517,,*00
$GPGGA,150131.131,4728.3001,N,1903.1495,E,1,,,,,,,,*7F
$GPRMC,150131.430,A,4728.3012,N,1903.1414,E,20.33,286.89,010517,,*0C
$GPGGA,150131.430,4728.3012,N,1903.1414,E,1,,,,,,,,*70
$GPRMC,150131.730,A,4728.3029,N,1903.1322,E,23.20,286.61,010517,,*02
$GPGGA,150131.730,4728.3029,N,1903.1322,E,1,,,,,,,,*79
$GPRMC,150132.31,A,4728.3047,N,1903.1224,E,24.78,286.61,010517,,*32
$GPGGA,150132.31,4728.3047,N,1903.1224,E,1,,,,,,,,*43
$GPRMC,150132.331,A,4728.3066,N,1903.1121,E,25.99,286.15,010517,,*09
$GPGGA,150132.331,4728.3066,N,1903.1121,E,1,,,,,,,,*75
$GPRMC,150132.631,A,4728.3083,N,1903.1020,E,25.56,285.57,010517,,*01
$GPGGA,150132.631,4728.3083,N,1903.1020,E,1,,,,,,,,*7B
$GPRMC,150132.931,A,4728.3093,N,1903.0953,E,16.81,282.08,010517,,*04
$GPGGA,150132.931,4728.3093,N,1903.0953,E,1,,,,,,,,*79
$GPRMC,150133.230,A,4728.3093,N,1903.0917,E,08.86,272.11,010517,,*00
$GPGGA,150133.230,4728.3093,N,1903.0917,E,1,,,,,,,,*72
$GPRMC,150133.530,A,4728.3092,N,1903.0873,E,10.71,269.94,010517,,*03
$GPGGA,150133.530,4728.3092,N,1903.0873,E,1,,,,,,,,*77
$GPRMC,150133.830,A,4728.3091,N,1903.0818,E,13.48,269.57,010517,,*06
$GPGGA,150133.830,4728.3091,N,1903.0818,E,1,,,,,,,,*74
$GPRMC,150134.130,A,4728.3089,N,1903.0753,E,15.79,268.02,010517,,*04
$GPGGA,150134.130,4728.3089,N,1903.0753,E,1,,,,,,,,*73
$GPRMC,150134.431,A,4728.3099,N,1903.0680,E,18.53,289.05,010517,,*03
$GPGGA,150134.431,4728.3099,N,1903.0680,E,1,,,,,,,,*79
$GPRMC,150134.731,A,4728.3117,N,1903.0596,E,21.42,289.05,010517,,*09
$GPGGA,150134.731,4728.3117,N,1903.0596,E,1,,,,,,,,*79
$GPRMC,150135.30,A,4728.3137,N,1903.0505,E,23.40,289.05,010517,,*36
$GPGGA,150135.30,4728.3137,N,1903.0505,E,1,,,,,,,,*46
$GPRMC,150135.330,A,4728.3158,N,1903.0407,E,24.99,289.05,010517,,*0C
$GPGGA,150135.330,4728.3158,N,1903.0407,E,1,,,,,,,,*7F
$GPRMC,150135.631,A,4728.3180,N,1903.0304,E,26.35,289.05,010517,,*0D
$GPGGA,150135.631,4728.3180,N,1903.0304,E,1,,,,,,,,*7A
$GPRMC,150135.931,A,4728.3202,N,1903.0204,E,25.85,289.05,010517,,*02
$GPGGA,150135.931,4728.3202,N,1903.0204,E,1,,,,,,,,*7D
$GPRMC,150136.231,A,4728.3224,N,1903.0099,E,26.89,289.05,010517,,*07
$GPGGA,150136.231,4728.3224,N,1903.0099,E,1,,,,,,,,*77
$GPRMC,150136.530,A,4728.3247,N,1902.9994,E,26.76,288.56,010517,,*0F
$GPGGA,150136.530,4728.3247,N,1902.9994,E,1,,,,,,,,*78
$GPRMC,150136.830,A,4728.3268,N,1902.9889,E,26.78,287.77,010517,,*00
$GPGGA,150136.830,4728.3268,N,1902.9889,E,1,,,,,,,,*75
$GPRMC,150137.131,A,4728.3288,N,1902.9785,E,26.54,287.77,010517,,*0A
$GPGGA,150137.131,4728.3288,N,1902.9785,E,1,,,,,,,,*71
$GPRMC,150137.431,A,4728.3309,N,1902.9679,E,26.88,287.77,010517,,*04
$GPGGA,150137.431,4728.3309,N,1902.9679,E,1,,,,,,,,*7E
$GPRMC,150137.731,A,4728.3330,N,1902.9576,E,26.11,287.91,010517,,*09
$GPGGA,150137.731,4728.3330,N,1902.9576,E,1,,,,,,,,*7B
$GPRMC,150138.31,A,4728.3350,N,1902.9475,E,25.72,288.09,010517,,*3D
$GPGGA,150138.31,4728.3350,N,1902.9475,E,1,,,,,,,,*47
$GPRMC,150138.331,A,4728.3371,N,1902.9372,E,26.47,288.09,010517,,*08
$GPGGA,150138.331,4728.3371,N,1902.9372,E,1,,,,,,,,*77
$GPRMC,150138.631,A,4728.3393,N,1902.9267,E,26.76,288.09,010517,,*06
$GPGGA,150138.631,4728.3393,N,1902.9267,E,1,,,,,,,,*7B
$GPRMC,150138.931,A,4728.3414,N,1902.9162,E,26.77,288.07,010517,,*08
$GPGGA,150138.931,4728.3414,N,1902.9162,E,1,,,,,,,,*7A
$GPRMC,150139.231,A,4728.3434,N,1902.9061,E,25.65,287.94,010517,,*07
$GPGGA,150139.231,4728.3434,N,1902.9061,E,1,,,,,,,,*70
$GPRMC,150139.532,A,4728.3455,N,1902.8956,E,26.74,287.94,010517,,*0B
$GPGGA,150139.532,4728.3455,N,1902.8956,E,1,,,,,,,,*7F
$GPRMC,150139.831,A,4728.3477,N,1902.8850,E,26.99,287.94,010517,,*01
$GPGGA,150139.831,4728.3477,N,1902.8850,E,1,,,,,,,,*76
$GPRMC,150140.131,A,4728.3497,N,1902.8749,E,25.73,287.94,010517,,*08
$GPGGA,150140.131,4728.3497,N,1902.8749,E,1,,,,,,,,*78
$GPRMC,150140.432,A,4728.3517,N,1902.8648,E,25.83,288.28,010517,,*00
$GPGGA,150140.432,4728.3517,N,1902.8648,E,1,,,,,,,,*77
$GPRMC,150140.732,A,4728.3540,N,1902.8544,E,26.58,289.37,010517,,*04
$GPGGA,150140.732,4728.3540,N,1902.8544,E,1,,,,,,,,*79
$GPRMC,150141.31,A,4728.3563,N,1902.8440,E,26.56,289.37,010517,,*3B
$GPGGA,150141.31,4728.3563,N,1902.8440,E,1,,,,,,,,*48
$GPRMC,150141.332,A,4728.3584,N,1902.8338,E,26.15,288.64,010517,,*0A
$GPGGA,150141.332,4728.3584,N,1902.8338,E,1,,,,,,,,*79
$GPRMC,150141.632,A,4728.3606,N,1902.8234,E,26.64,288.14,010517,,*0A
$GPGGA,150141.632,4728.3606,N,1902.8234,E,1,,,,,,,,*78
$GPRMC,150141.933,A,4728.3627,N,1902.8130,E,26.34,288.14,010517,,*05
$GPGGA,150141.933,4728.3627,N,1902.8130,E,1,,,,,,,,*72
$GPRMC,150142.232,A,4728.3647,N,1902.8029,E,25.88,288.14,010517,,*07
$GPGGA,150142.232,4728.3647,N,1902.8029,E,1,,,,,,,,*74
$GPRMC,150142.533,A,4728.3668,N,1902.7925,E,26.40,288.14,010517,,*01
$GPGGA,150142.533,4728.3668,N,1902.7925,E,1,,,,,,,,*75
$GPRMC,150142.833,A,4728.3689,N,1902.7823,E,25.97,288.14,010517,,*0D
$GPGGA,150142.833,4728.3689,N,1902.7823,E,1,,,,,,,,*70
$GPRMC,150143.133,A,4728.3705,N,1902.7744,E,20.25,288.14,010517,,*02
$GPGGA,150143.133,4728.3705,N,1902.7744,E,1,,,,,,,,*73
$GPRMC,150143.433,A,4728.3715,N,1902.7696,E,12.14,288.13,010517,,*0C
$GPGGA,150143.433,4728.3715,N,1902.7696,E,1,,,,,,,,*79
$GPRMC,150143.732,A,4728.3727,N,1902.7642,E,14.05,290.72,010517,,*0E
$GPGGA,150143.732,4728.3727,N,1902.7642,E,1,,,,,,,,*73
$GPRMC,150144.33,A,4728.3738,N,1902.7600,E,10.95,291.59,010517,,*32
$GPGGA,150144.33,4728.3738,N,1902.7600,E,1,,,,,,,,*4A
$GPRMC,150144.332,A,4728.3749,N,1902.7547,E,13.46,286.85,010517,,*0C
$GPGGA,150144.332,4728.3749,N,1902.7547,E,1,,,,,,,,*7E
$GPRMC,150144.633,A,4728.3759,N,1902.7484,E,16.05,289.35,010517,,*01
$GPGGA,150144.633,4728.3759,N,1902.7484,E,1,,,,,,,,*75
$GPRMC,150144.934,A,4728.3778,N,1902.7412,E,18.87,292.16,010517,,*0A
$GPGGA,150144.934,4728.3778,N,1902.7412,E,1,,,,,,,,*71
$GPRMC,150145.234,A,4728.3799,N,1902.7330,E,21.17,292.16,010517,,*0B
$GPGGA,150145.234,4728.3799,N,1902.7330,E,1,,,,,,,,*73
$GPRMC,150145.535,A,4728.3822,N,1902.7239,E,23.80,292.16,010517,,*06
$GPGGA,150145.535,4728.3822,N,1902.7239,E,1,,,,,,,,*72
$GPRMC,150145.836,A,4728.3848,N,1902.7138,E,26.47,292.16,010517,,*08
$GPGGA,150145.836,4728.3848,N,1902.7138,E,1,,,,,,,,*72
$GPRMC,150146.135,A,4728.3873,N,1902.7040,E,25.64,292.16,010517,,*05
$GPGGA,150146.135,4728.3873,N,1902.7040,E,1,,,,,,,,*7D
$GPRMC,150146.436,A,4728.3899,N,1902.6940,E,25.92,292.16,010517,,*06
$GPGGA,150146.436,4728.3899,N,1902.6940,E,1,,,,,,,,*77
$GPRMC,150146.736,A,4728.3916,N,1902.6875,E,17.17,292.16,010517,,*08
$GPGGA,150146.736,4728.3916,N,1902.6875,E,1,,,,,,,,*75
$GPRMC,150147.36,A,4728.3924,N,1902.6842,E,08.42,292.16,010517,,*35
$GPGGA,150147.36,4728.3924,N,1902.6842,E,1,,,,,,,,*46
$GPRMC,150147.337,A,4728.3933,N,1902.6804,E,09.95,291.86,010517,,*02
$GPGGA,150147.337,4728.3933,N,1902.6804,E,1,,,,,,,,*70
$GPRMC,150147.636,A,4728.3945,N,1902.6760,E,11.53,291.78,010517,,*08
$GPGGA,150147.636,4728.3945,N,1902.6760,E,1,,,,,,,,*78
$GPRMC,150147.937,A,4728.3958,N,1902.6705,E,14.37,291.56,010517,,*02
$GPGGA,150147.937,4728.3958,N,1902.6705,E,1,,,,,,,,*79
$GPRMC,150148.236,A,4728.3974,N,1902.6642,E,16.29,291.56,010517,,*06
$GPGGA,150148.236,4728.3974,N,1902.6642,E,1,,,,,,,,*70
$GPRMC,150148.536,A,4728.3991,N,1902.6571,E,18.36,291.56,010517,,*09
$GPGGA,150148.536,4728.3991,N,1902.6571,E,1,,,,,,,,*7F
$GPRMC,150148.836,A,4728.4011,N,1902.6492,E,20.68,291.56,010517,,*0E
$GPGGA,150148.836,4728.4011,N,1902.6492,E,1,,,,,,,,*78
$GPRMC,150149.137,A,4728.4033,N,1902.6404,E,22.89,291.56,010517,,*05
$GPGGA,150149.137,4728.4033,N,1902.6404,E,1,,,,,,,,*7E
$GPRMC,150149.437,A,4728.4057,N,1902.6306,E,25.49,291.56,010517,,*0C
$GPGGA,150149.437,4728.4057,N,1902.6306,E,1,,,,,,,,*7C
$GPRMC,150149.737,A,4728.4075,N,1902.6237,E,18.03,291.56,010517,,*0C
$GPGGA,150149.737,4728.4075,N,1902.6237,E,1,,,,,,,,*7C
$GPRMC,150150.27,A,4728.4083,N,1902.6201,E,09.28,291.56,010517,,*37
$GPGGA,150150.27,4728.4083,N,1902.6201,E,1,,,,,,,,*4E
$GPRMC,150150.306,A,4728.4094,N,1902.6156,E,11.65,291.21,010517,,*00
$GPGGA,150150.306,4728.4094,N,1902.6156,E,1,,,,,,,,*79
$GPRMC,150150.566,A,4728.4107,N,1902.6104,E,13.43,290.96,010517,,*07
$GPGGA,150150.566,4728.4107,N,1902.6104,E,1,,,,,,,,*75
$GPRMC,150150.817,A,4728.4121,N,1902.6043,E,15.74,290.80,010517,,*0F
$GPGGA,150150.817,4728.4121,N,1902.6043,E,1,,,,,,,,*78
$GPRMC,150151.47,A,4728.4138,N,1902.5975,E,17.59,290.80,010517,,*39
$GPGGA,150151.47,4728.4138,N,1902.5975,E,1,,,,,,,,*43
$GPRMC,150151.278,A,4728.4156,N,1902.5900,E,19.62,290.80,010517,,*0B
$GPGGA,150151.278,4728.4156,N,1902.5900,E,1,,,,,,,,*77
$GPRMC,150151.507,A,4728.4175,N,1902.5817,E,21.28,290.80,010517,,*07
$GPGGA,150151.507,4728.4175,N,1902.5817,E,1,,,,,,,,*7E
$GPRMC,150151.728,A,4728.4197,N,1902.5728,E,23.22,290.80,010517,,*0F
$GPGGA,150151.728,4728.4197,N,1902.5728,E,1,,,,,,,,*7E
$GPRMC,150151.938,A,4728.4219,N,1902.5632,E,24.72,290.80,010517,,*0D
$GPGGA,150151.938,4728.4219,N,1902.5632,E,1,,,,,,,,*7E
$GPRMC,150152.138,A,4728.4237,N,1902.5557,E,19.49,290.80,010517,,*0C
$GPGGA,150152.138,4728.4237,N,1902.5557,E,1,,,,,,,,*79
$GPRMC,150152.328,A,4728.4248,N,1902.5511,E,11.98,290.80,010517,,*01
$GPGGA,150152.328,4728.4248,N,1902.5511,E,1,,,,,,,,*70
$GPRMC,150152.508,A,4728.4261,N,1902.5458,E,13.76,291.18,010517,,*00
$GPGGA,150152.508,4728.4261,N,1902.5458,E,1,,,,,,,,*73
$GPRMC,150152.678,A,4728.4276,N,1902.5397,E,15.80,291.60,010517,,*06
$GPGGA,150152.678,4728.4276,N,1902.5397,E,1,,,,,,,,*75
$GPRMC,150152.838,A,4728.4294,N,1902.5327,E,18.14,291.60,010517,,*0B
$GPGGA,150152.838,4728.4294,N,1902.5327,E,1,,,,,,,,*78
$GPRMC,150152.989,A,4728.4313,N,1902.5250,E,19.97,291.60,010517,,*05
$GPGGA,150152.989,4728.4313,N,1902.5250,E,1,,,,,,,,*7C
$GPRMC,150153.139,A,4728.4333,N,1902.5167,E,21.73,291.60,010517,,*03
$GPGGA,150153.139,4728.4333,N,1902.5167,E,1,,,,,,,,*7B
$GPRMC,150153.279,A,4728.4357,N,1902.5073,E,24.26,291.60,010517,,*07
$GPGGA,150153.279,4728.4357,N,1902.5073,E,1,,,,,,,,*7A
$GPRMC,150153.418,A,4728.4381,N,1902.4975,E,25.70,291.60,010517,,*01
$GPGGA,150153.418,4728.4381,N,1902.4975,E,1,,,,,,,,*7E
$GPRMC,150153.559,A,4728.4406,N,1902.4875,E,25.89,291.60,010517,,*0A
$GPGGA,150153.559,4728.4406,N,1902.4875,E,1,,,,,,,,*73
$GPRMC,150153.689,A,4728.4431,N,1902.4773,E,26.62,291.60,010517,,*0F
$GPGGA,150153.689,4728.4431,N,1902.4773,E,1,,,,,,,,*70
$GPRMC,150153.809,A,4728.4456,N,1902.4674,E,25.64,291.60,010517,,*0B
$GPGGA,150153.809,4728.4456,N,1902.4674,E,1,,,,,,,,*71
$GPRMC,150153.928,A,4728.4480,N,1902.4576,E,25.56,291.60,010517,,*02
$GPGGA,150153.928,4728.4480,N,1902.4576,E,1,,,,,,,,*79
$GPRMC,150154.39,A,4728.4505,N,1902.4477,E,25.72,291.60,010517,,*36
$GPGGA,150154.39,4728.4505,N,1902.4477,E,1,,,,,,,,*4B
$GPRMC,150154.149,A,4728.4530,N,1902.4378,E,25.76,291.60,010517,,*0A
$GPGGA,150154.149,4728.4530,N,1902.4378,E,1,,,,,,,,*73
$GPRMC,150154.248,A,4728.4555,N,1902.4275,E,26.83,291.60,010517,,*0E
$GPGGA,150154.248,4728.4555,N,1902.4275,E,1,,,,,,,,*7E
$GPRMC,150154.349,A,4728.4580,N,1902.4175,E,25.93,291.60,010517,,*07
$GPGGA,150154.349,4728.4580,N,1902.4175,E,1,,,,,,,,*75
$GPRMC,150154.438,A,4728.4605,N,1902.4077,E,25.59,291.57,010517,,*09
$GPGGA,150154.438,4728.4605,N,1902.4077,E,1,,,,,,,,*79
$GPRMC,150154.529,A,4728.4630,N,1902.3975,E,26.48,291.57,010517,,*01
$GPGGA,150154.529,4728.4630,N,1902.3975,E,1,,,,,,,,*72
$GPRMC,150154.618,A,4728.4663,N,1902.3879,E,26.56,300.48,010517,,*03
$GPGGA,150154.618,4728.4663,N,1902.3879,E,1,,,,,,,,*78
$GPRMC,150154.709,A,4728.4688,N,1902.3781,E,25.71,291.81,010517,,*05
$GPGGA,150154.709,4728.4688,N,1902.3781,E,1,,,,,,,,*74
$GPRMC,150154.799,A,4728.4713,N,1902.3680,E,26.11,291.81,010517,,*0A
$GPGGA,150154.799,4728.4713,N,1902.3680,E,1,,,,,,,,*7E
$GPRMC,150154.889,A,4728.4738,N,1902.3582,E,25.73,291.81,010517,,*0B
$GPGGA,150154.889,4728.4738,N,1902.3582,E,1,,,,,,,,*78
$GPRMC,150154.969,A,4728.4761,N,1902.3492,E,23.33,291.81,010517,,*0A
$GPGGA,150154.969,4728.4761,N,1902.3492,E,1,,,,,,,,*7B
$GPRMC,150155.48,A,4728.4775,N,1902.3436,E,14.58,291.81,010517,,*33
$GPGGA,150155.48,4728.4775,N,1902.3436,E,1,,,,,,,,*4B
$GPRMC,150155.129,A,4728.4781,N,1902.3414,E,05.84,291.81,010517,,*0F
$GPGGA,150155.129,4728.4781,N,1902.3414,E,1,,,,,,,,*76
$GPRMC,150155.208,A,4728.4781,N,1902.3411,E,00.73,291.81,010517,,*07
$GPGGA,150155.208,4728.4781,N,1902.3411,E,1,,,,,,,,*73
$GPRMC,150155.289,A,4728.4784,N,1902.3401,E,02.59,291.79,010517,,*07
$GPGGA,150155.289,4728.4784,N,1902.3401,E,1,,,,,,,,*7E
$GPRMC,150155.370,A,4728.4789,N,1902.3380,E,05.48,291.75,010517,,*08
$GPGGA,150155.370,4728.4789,N,1902.3380,E,1,,,,,,,,*7A
$GPRMC,150155.449,A,4728.4797,N,1902.3348,E,08.30,291.73,010517,,*0A
$GPGGA,150155.449,4728.4797,N,1902.3348,E,1,,,,,,,,*7C
$GPRMC,150155.530,A,4728.4806,N,1902.3306,E,10.76,288.54,010517,,*0E
$GPGGA,150155.530,4728.4806,N,1902.3306,E,1,,,,,,,,*7E
$GPRMC,150155.610,A,4728.4816,N,1902.3255,E,12.92,288.54,010517,,*01
$GPGGA,150155.610,4728.4816,N,1902.3255,E,1,,,,,,,,*79
$GPRMC,150155.690,A,4728.4827,N,1902.3206,E,12.75,288.33,010517,,*05
$GPGGA,150155.690,4728.4827,N,1902.3206,E,1,,,,,,,,*75
$GPRMC,150155.770,A,4728.4837,N,1902.3147,E,14.80,287.29,010517,,*05
$GPGGA,150155.770,4728.4837,N,1902.3147,E,1,,,,,,,,*7D
$GPRMC,150155.850,A,4728.4851,N,1902.3078,E,17.50,287.84,010517,,*0C
$GPGGA,150155.850,4728.4851,N,1902.3078,E,1,,,,,,,,*7D
$GPRMC,150155.929,A,4728.4870,N,1902.3002,E,19.75,291.79,010517,,*01
$GPGGA,150155.929,4728.4870,N,1902.3002,E,1,,,,,,,,*7C
$GPRMC,150156.10,A,4728.4892,N,1902.2916,E,22.42,291.78,010517,,*3D
$GPGGA,150156.10,4728.4892,N,1902.2916,E,1,,,,,,,,*4D
$GPRMC,150156.89,A,4728.4915,N,1902.2822,E,24.47,291.78,010517,,*36
$GPGGA,150156.89,4728.4915,N,1902.2822,E,1,,,,,,,,*45
$GPRMC,150156.170,A,4728.4931,N,1902.2759,E,16.49,291.78,010517,,*0B
$GPGGA,150156.170,4728.4931,N,1902.2759,E,1,,,,,,,,*77
$GPRMC,150156.249,A,4728.4940,N,1902.2725,E,08.94,291.78,010517,,*00
$GPGGA,150156.249,4728.4940,N,1902.2725,E,1,,,,,,,,*73
$GPRMC,150156.329,A,4728.4951,N,1902.2680,E,11.75,291.94,010517,,*0C
$GPGGA,150156.329,4728.4951,N,1902.2680,E,1,,,,,,,,*7A
$GPRMC,150156.409,A,4728.4964,N,1902.2628,E,13.47,292.17,010517,,*06
$GPGGA,150156.409,4728.4964,N,1902.2628,E,1,,,,,,,,*7B
$GPRMC,150156.490,A,4728.4980,N,1902.2569,E,15.36,292.17,010517,,*0A
$GPGGA,150156.490,4728.4980,N,1902.2569,E,1,,,,,,,,*77
$GPRMC,150156.570,A,4728.4997,N,1902.2500,E,18.14,292.17,010517,,*01
$GPGGA,150156.570,4728.4997,N,1902.2500,E,1,,,,,,,,*71
$GPRMC,150156.640,A,4728.5017,N,1902.2422,E,20.37,292.17,010517,,*0A
$GPGGA,150156.640,4728.5017,N,1902.2422,E,1,,,,,,,,*70
$GPRMC,150156.710,A,4728.5040,N,1902.2333,E,23.03,292.17,010517,,*0F
$GPGGA,150156.710,4728.5040,N,1902.2333,E,1,,,,,,,,*71
$GPRMC,150156.780,A,4728.5065,N,1902.2234,E,25.93,292.17,010517,,*08
$GPGGA,150156.780,4728.5065,N,1902.2234,E,1,,,,,,,,*79
$GPRMC,150156.851,A,4728.5092,N,1902.2132,E,26.68,292.17,010517,,*01
$GPGGA,150156.851,4728.5092,N,1902.2132,E,1,,,,,,,,*77
$GPRMC,150156.921,A,4728.5117,N,1902.2033,E,25.87,291.92,010517,,*07
$GPGGA,150156.921,4728.5117,N,1902.2033,E,1,,,,,,,,*7D
$GPRMC,150156.992,A,4728.5142,N,1902.1932,E,26.31,291.82,010517,,*0B
$GPGGA,150156.992,4728.5142,N,1902.1932,E,1,,,,,,,,*7E
$GPRMC,150157.62,A,4728.5167,N,1902.1832,E,25.84,291.82,010517,,*37
$GPGGA,150157.62,4728.5167,N,1902.1832,E,1,,,,,,,,*4F
$GPRMC,150157.131,A,4728.5192,N,1902.1734,E,25.66,291.82,010517,,*0F
$GPGGA,150157.131,4728.5192,N,1902.1734,E,1,,,,,,,,*7B
$GPRMC,150157.202,A,4728.5218,N,1902.1631,E,26.78,291.82,010517,,*05
$GPGGA,150157.202,4728.5218,N,1902.1631,E,1,,,,,,,,*7D
$GPRMC,150157.271,A,4728.5243,N,1902.1533,E,25.55,291.82,010517,,*02
$GPGGA,150157.271,4728.5243,N,1902.1533,E,1,,,,,,,,*76
$GPRMC,150157.341,A,4728.5262,N,1902.1458,E,19.51,291.82,010517,,*04
$GPGGA,150157.341,4728.5262,N,1902.1458,E,1,,,,,,,,*7B
$GPRMC,150157.411,A,4728.5272,N,1902.1417,E,10.76,291.82,010517,,*00
$GPGGA,150157.411,4728.5272,N,1902.1417,E,1,,,,,,,,*73
$GPRMC,150157.481,A,4728.5284,N,1902.1368,E,12.57,291.37,010517,,*00
$GPGGA,150157.481,4728.5284,N,1902.1368,E,1,,,,,,,,*7C
$GPRMC,150157.542,A,4728.5297,N,1902.1314,E,14.14,291.07,010517,,*05
$GPGGA,150157.542,4728.5297,N,1902.1314,E,1,,,,,,,,*7B
$GPRMC,150157.601,A,4728.5313,N,1902.1249,E,16.73,291.07,010517,,*06
$GPGGA,150157.601,4728.5313,N,1902.1249,E,1,,,,,,,,*7B
$GPRMC,150157.662,A,4728.5331,N,1902.1176,E,19.11,291.07,010517,,*07
$GPGGA,150157.662,4728.5331,N,1902.1176,E,1,,,,,,,,*71
$GPRMC,150157.722,A,4728.5351,N,1902.1092,E,21.64,291.07,010517,,*06
$GPGGA,150157.722,4728.5351,N,1902.1092,E,1,,,,,,,,*79
$GPRMC,150157.782,A,4728.5374,N,1902.0997,E,24.55,291.07,010517,,*01
$GPGGA,150157.782,4728.5374,N,1902.0997,E,1,,,,,,,,*79
$GPRMC,150157.842,A,4728.5398,N,1902.0896,E,26.33,291.07,010517,,*02
$GPGGA,150157.842,4728.5398,N,1902.0896,E,1,,,,,,,,*78
$GPRMC,150157.902,A,4728.5423,N,1902.0795,E,26.05,291.07,010517,,*09
$GPGGA,150157.902,4728.5423,N,1902.0795,E,1,,,,,,,,*76
$GPRMC,150157.962,A,4728.5462,N,1902.0719,E,26.64,342.99,010517,,*01
$GPGGA,150157.962,4728.5462,N,1902.0719,E,1,,,,,,,,*71
$GPRMC,150158.22,A,4728.5533,N,1902.0750,E,26.75,18.26,010517,,*03
$GPGGA,150158.22,4728.5533,N,1902.0750,E,1,,,,,,,,*4B
$GPRMC,150158.82,A,4728.5603,N,1902.0781,E,26.17,18.26,010517,,*01
$GPGGA,150158.82,4728.5603,N,1902.0781,E,1,,,,,,,,*4D
$GPRMC,150158.142,A,4728.5673,N,1902.0812,E,26.28,18.26,010517,,*32
$GPGGA,150158.142,4728.5673,N,1902.0812,E,1,,,,,,,,*72
$GPRMC,150158.202,A,4728.5741,N,1902.0842,E,25.77,18.26,010517,,*39
$GPGGA,150158.202,4728.5741,N,1902.0842,E,1,,,,,,,,*70
$GPRMC,150158.262,A,4728.5810,N,1902.0873,E,25.85,18.26,010517,,*3B
$GPGGA,150158.262,4728.5810,N,1902.0873,E,1,,,,,,,,*7F
$GPRMC,150158.322,A,4728.5858,N,1902.0894,E,18.15,18.26,010517,,*3C
$GPGGA,150158.322,4728.5858,N,1902.0894,E,1,,,,,,,,*7F
$GPRMC,150158.381,A,4728.5883,N,1902.0906,E,09.40,18.26,010517,,*39
$GPGGA,150158.381,4728.5883,N,1902.0906,E,1,,,,,,,,*7A
$GPRMC,150158.442,A,4728.5911,N,1902.0927,E,11.68,31.26,010517,,*30
$GPGGA,150158.442,4728.5911,N,1902.0927,E,1,,,,,,,,*7B
$GPRMC,150158.502,A,4728.5920,N,1902.0981,E,14.06,81.65,010517,,*3A
$GPGGA,150158.502,4728.5920,N,1902.0981,E,1,,,,,,,,*70
$GPRMC,150158.562,A,4728.5921,N,1902.1035,E,13.92,91.44,010517,,*32
$GPGGA,150158.562,4728.5921,N,1902.1035,E,1,,,,,,,,*70
$GPRMC,150158.621,A,4728.5910,N,1902.1094,E,16.65,116.06,010517,,*0A
$GPGGA,150158.621,4728.5910,N,1902.1094,E,1,,,,,,,,*7D
$GPRMC,150158.682,A,4728.5893,N,1902.1168,E,19.02,110.51,010517,,*01
$GPGGA,150158.682,4728.5893,N,1902.1168,E,1,,,,,,,,*7C
$GPRMC,150158.816,A,4728.5873,N,1902.1252,E,21.65,110.51,010517,,*0C
$GPGGA,150158.816,4728.5873,N,1902.1252,E,1,,,,,,,,*7B
$GPRMC,150158.876,A,4728.5851,N,1902.1346,E,24.51,110.51,010517,,*0C
$GPGGA,150158.876,4728.5851,N,1902.1346,E,1,,,,,,,,*79
$GPRMC,150158.937,A,4728.5827,N,1902.1451,E,26.97,110.51,010517,,*00
$GPGGA,150158.937,4728.5827,N,1902.1451,E,1,,,,,,,,*7D
$GPRMC,150158.997,A,4728.5803,N,1902.1551,E,26.19,110.51,010517,,*0B
$GPGGA,150158.997,4728.5803,N,1902.1551,E,1,,,,,,,,*70
$GPRMC,150159.56,A,4728.5780,N,1902.1652,E,26.08,110.51,010517,,*3A
$GPGGA,150159.56,4728.5780,N,1902.1652,E,1,,,,,,,,*41
$GPRMC,150159.117,A,4728.5756,N,1902.1754,E,26.34,110.52,010517,,*0E
$GPGGA,150159.117,4728.5756,N,1902.1754,E,1,,,,,,,,*79
$GPRMC,150159.177,A,4728.5732,N,1902.1856,E,26.30,110.51,010517,,*00
$GPGGA,150159.177,4728.5732,N,1902.1856,E,1,,,,,,,,*70
$GPRMC,150159.236,A,4728.5708,N,1902.1957,E,25.94,110.51,010517,,*02
$GPGGA,150159.236,4728.5708,N,1902.1957,E,1,,,,,,,,*7F
$GPRMC,150159.296,A,4728.5684,N,1902.2060,E,26.69,110.51,010517,,*02
$GPGGA,150159.296,4728.5684,N,1902.2060,E,1,,,,,,,,*7E
$GPRMC,150159.357,A,4728.5660,N,1902.2162,E,26.45,110.51,010517,,*09
$GPGGA,150159.357,4728.5660,N,1902.2162,E,1,,,,,,,,*7B
$GPRMC,150159.416,A,4728.5636,N,1902.2265,E,26.61,110.52,010517,,*09
$GPGGA,150159.416,4728.5636,N,1902.2265,E,1,,,,,,,,*7E
$GPRMC,150159.477,A,4728.5613,N,1902.2365,E,25.77,110.51,010517,,*0F
$GPGGA,150159.477,4728.5613,N,1902.2365,E,1,,,,,,,,*7F
$GPRMC,150159.537,A,4728.5588,N,1902.2469,E,26.72,110.50,010517,,*07
$GPGGA,150159.537,4728.5588,N,1902.2469,E,1,,,,,,,,*70
$GPRMC,150159.597,A,4728.5564,N,1902.2570,E,26.32,110.50,010517,,*02
$GPGGA,150159.597,4728.5564,N,1902.2570,E,1,,,,,,,,*71
$GPRMC,150159.658,A,4728.5541,N,1902.2670,E,25.70,110.50,010517,,*03
$GPGGA,150159.658,4728.5541,N,1902.2670,E,1,,,,,,,,*75
$GPRMC,150159.718,A,4728.5517,N,1902.2771,E,26.18,110.50,010517,,*08
$GPGGA,150159.718,4728.5517,N,1902.2771,E,1,,,,,,,,*73
$GPRMC,150159.778,A,4728.5494,N,1902.2872,E,25.96,110.50,010517,,*0D
$GPGGA,150159.778,4728.5494,N,1902.2872,E,1,,,,,,,,*73
$GPRMC,150159.838,A,4728.5470,N,1902.2972,E,26.04,110.50,010517,,*05
$GPGGA,150159.838,4728.5470,N,1902.2972,E,1,,,,,,,,*73
$GPRMC,150159.898,A,4728.5446,N,1902.3077,E,26.90,109.92,010517,,*0C
$GPGGA,150159.898,4728.5446,N,1902.3077,E,1,,,,,,,,*71
$GPRMC,150159.958,A,4728.5423,N,1902.3179,E,26.33,110.33,010517,,*07
$GPGGA,150159.958,4728.5423,N,1902.3179,E,1,,,,,,,,*70
$GPRMC,150200.18,A,4728.5392,N,1902.3275,E,26.64,109.81,010517,,*34
$GPGGA,150200.18,4728.5392,N,1902.3275,E,1,,,,,,,,*40
$GPRMC,150200.79,A,4728.5370,N,1902.3376,E,26.09,109.81,010517,,*36
$GPGGA,150200.79,4728.5370,N,1902.3376,E,1,,,,,,,,*49
$GPRMC,150200.139,A,4728.5347,N,1902.3476,E,25.66,109.81,010517,,*0A
$GPGGA,150200.139,4728.5347,N,1902.3476,E,1,,,,,,,,*7F
$GPRMC,150200.199,A,4728.5324,N,1902.3580,E,26.68,109.81,010517,,*00
$GPGGA,150200.199,4728.5324,N,1902.3580,E,1,,,,,,,,*78
$GPRMC,150200.258,A,4728.5300,N,1902.3683,E,26.70,109.86,010517,,*06
$GPGGA,150200.258,4728.5300,N,1902.3683,E,1,,,,,,,,*70
$GPRMC,150200.319,A,4728.5278,N,1902.3784,E,25.93,109.80,010517,,*02
$GPGGA,150200.319,4728.5278,N,1902.3784,E,1,,,,,,,,*7C
$GPRMC,150200.388,A,4728.5255,N,1902.3887,E,26.32,109.82,010517,,*03
$GPGGA,150200.388,4728.5255,N,1902.3887,E,1,,,,,,,,*77
$GPRMC,150200.459,A,4728.5232,N,1902.3989,E,26.44,109.82,010517,,*07
$GPGGA,150200.459,4728.5232,N,1902.3989,E,1,,,,,,,,*72
$GPRMC,150200.529,A,4728.5209,N,1902.4091,E,25.89,109.77,010517,,*06
$GPGGA,150200.529,4728.5209,N,1902.4091,E,1,,,,,,,,*7B
$GPRMC,150200.599,A,4728.5191,N,1902.4185,E,24.91,103.70,010517,,*0E
$GPGGA,150200.599,4728.5191,N,1902.4185,E,1,,,,,,,,*76
$GPRMC,150200.668,A,4728.5189,N,1902.4248,E,16.17,94.82,010517,,*35
$GPGGA,150200.668,4728.5189,N,1902.4248,E,1,,,,,,,,*70
$GPRMC,150200.739,A,4728.5179,N,1902.4322,E,18.69,102.44,010517,,*01
$GPGGA,150200.739,4728.5179,N,1902.4322,E,1,,,,,,,,*77
$GPRMC,150200.810,A,4728.5164,N,1902.4404,E,20.80,110.36,010517,,*00
$GPGGA,150200.810,4728.5164,N,1902.4404,E,1,,,,,,,,*7C
$GPRMC,150200.880,A,4728.5143,N,1902.4494,E,23.35,110.82,010517,,*07
$GPGGA,150200.880,4728.5143,N,1902.4494,E,1,,,,,,,,*79
$GPRMC,150200.949,A,4728.5119,N,1902.4594,E,25.93,110.82,010517,,*07
$GPGGA,150200.949,4728.5119,N,1902.4594,E,1,,,,,,,,*73
$GPRMC,150201.20,A,4728.5094,N,1902.4698,E,26.78,110.82,010517,,*3D
$GPGGA,150201.20,4728.5094,N,1902.4698,E,1,,,,,,,,*4F
$GPRMC,150201.90,A,4728.5078,N,1902.4767,E,18.03,110.82,010517,,*34
$GPGGA,150201.90,4728.5078,N,1902.4767,E,1,,,,,,,,*47
$GPRMC,150201.159,A,4728.5059,N,1902.4844,E,19.82,110.82,010517,,*05
$GPGGA,150201.159,4728.5059,N,1902.4844,E,1,,,,,,,,*7E
$GPRMC,150201.230,A,4728.5039,N,1902.4932,E,22.71,110.71,010517,,*07
$GPGGA,150201.230,4728.5039,N,1902.4932,E,1,,,,,,,,*74
$GPRMC,150201.299,A,4728.5016,N,1902.5030,E,25.26,110.31,010517,,*02
$GPGGA,150201.299,4728.5016,N,1902.5030,E,1,,,,,,,,*70
$GPRMC,150201.369,A,4728.4992,N,1902.5132,E,26.38,110.31,010517,,*07
$GPGGA,150201.369,4728.4992,N,1902.5132,E,1,,,,,,,,*79
$GPRMC,150201.439,A,4728.4968,N,1902.5236,E,26.81,110.33,010517,,*07
$GPGGA,150201.439,4728.4968,N,1902.5236,E,1,,,,,,,,*79
$GPRMC,150201.509,A,4728.4944,N,1902.5340,E,26.93,110.32,010517,,*09
$GPGGA,150201.509,4728.4944,N,1902.5340,E,1,,,,,,,,*75
$GPRMC,150201.580,A,4728.4921,N,1902.5441,E,26.03,110.32,010517,,*04
$GPGGA,150201.580,4728.4921,N,1902.5441,E,1,,,,,,,,*71
$GPRMC,150201.650,A,4728.4896,N,1902.5545,E,26.91,110.32,010517,,*09
$GPGGA,150201.650,4728.4896,N,1902.5545,E,1,,,,,,,,*77
$GPRMC,150201.720,A,4728.4873,N,1902.5648,E,26.40,110.32,010517,,*06
$GPGGA,150201.720,4728.4873,N,1902.5648,E,1,,,,,,,,*74
$GPRMC,150201.790,A,4728.4849,N,1902.5750,E,26.53,110.32,010517,,*0E
$GPGGA,150201.790,4728.4849,N,1902.5750,E,1,,,,,,,,*7E
$GPRMC,150201.860,A,4728.4825,N,1902.5851,E,26.03,110.32,010517,,*0F
$GPGGA,150201.860,4728.4825,N,1902.5851,E,1,,,,,,,,*7A
$GPRMC,150201.931,A,4728.4802,N,1902.5953,E,26.35,110.32,010517,,*09
$GPGGA,150201.931,4728.4802,N,1902.5953,E,1,,,,,,,,*79
$GPRMC,150202.01,A,4728.4778,N,1902.6054,E,26.04,110.32,010517,,*3D
$GPGGA,150202.01,4728.4778,N,1902.6054,E,1,,,,,,,,*4F
$GPRMC,150202.70,A,4728.4737,N,1902.6149,E,26.75,110.32,010517,,*3B
$GPGGA,150202.70,4728.4737,N,1902.6149,E,1,,,,,,,,*4F
$GPRMC,150202.141,A,4728.4714,N,1902.6252,E,26.55,110.32,010517,,*02
$GPGGA,150202.141,4728.4714,N,1902.6252,E,1,,,,,,,,*74
$GPRMC,150202.211,A,4728.4690,N,1902.6355,E,26.56,110.32,010517,,*0C
$GPGGA,150202.211,4728.4690,N,1902.6355,E,1,,,,,,,,*79
$GPRMC,150202.281,A,4728.4666,N,1902.6459,E,26.71,110.27,010517,,*06
$GPGGA,150202.281,4728.4666,N,1902.6459,E,1,,,,,,,,*72
$GPRMC,150202.350,A,4728.4642,N,1902.6561,E,26.34,110.31,010517,,*01
$GPGGA,150202.350,4728.4642,N,1902.6561,E,1,,,,,,,,*73
$GPRMC,150202.421,A,4728.4618,N,1902.6664,E,26.68,110.31,010517,,*00
$GPGGA,150202.421,4728.4618,N,1902.6664,E,1,,,,,,,,*7B
$GPRMC,150202.491,A,4728.4595,N,1902.6766,E,26.31,110.31,010517,,*02
$GPGGA,150202.491,4728.4595,N,1902.6766,E,1,,,,,,,,*75
$GPRMC,150202.561,A,4728.4570,N,1902.6870,E,26.83,110.31,010517,,*06
$GPGGA,150202.561,4728.4570,N,1902.6870,E,1,,,,,,,,*78
$GPRMC,150202.631,A,4728.4547,N,1902.6971,E,25.97,110.31,010517,,*02
$GPGGA,150202.631,4728.4547,N,1902.6971,E,1,,,,,,,,*7A
$GPRMC,150202.701,A,4728.4523,N,1902.7075,E,26.95,110.26,010517,,*09
$GPGGA,150202.701,4728.4523,N,1902.7075,E,1,,,,,,,,*76
$GPRMC,150202.771,A,4728.4500,N,1902.7176,E,25.98,110.09,010517,,*0E
$GPGGA,150202.771,4728.4500,N,1902.7176,E,1,,,,,,,,*72
$GPRMC,150202.840,A,4728.4476,N,1902.7281,E,26.95,110.09,010517,,*06
$GPGGA,150202.840,4728.4476,N,1902.7281,E,1,,,,,,,,*74
$GPRMC,150202.911,A,4728.4453,N,1902.7382,E,26.13,110.09,010517,,*08
$GPGGA,150202.911,4728.4453,N,1902.7382,E,1,,,,,,,,*74
$GPRMC,150202.980,A,4728.4429,N,1902.7486,E,26.66,110.09,010517,,*0C
$GPGGA,150202.980,4728.4429,N,1902.7486,E,1,,,,,,,,*72
$GPRMC,150203.51,A,4728.4407,N,1902.7582,E,24.90,110.09,010517,,*3A
$GPGGA,150203.51,4728.4407,N,1902.7582,E,1,,,,,,,,*4F
$GPRMC,150203.121,A,4728.4391,N,1902.7651,E,17.71,110.07,010517,,*08
$GPGGA,150203.121,4728.4391,N,1902.7651,E,1,,,,,,,,*7C
$GPRMC,150203.191,A,4728.4384,N,1902.7689,E,08.96,106.69,010517,,*0A
$GPGGA,150203.191,4728.4384,N,1902.7689,E,1,,,,,,,,*76
$GPRMC,150203.261,A,4728.4384,N,1902.7693,E,00.84,106.44,010517,,*09
$GPGGA,150203.261,4728.4384,N,1902.7693,E,1,,,,,,,,*71
$GPRMC,150203.330,A,4728.4383,N,1902.7694,E,00.21,106.44,010517,,*03
$GPGGA,150203.330,4728.4383,N,1902.7694,E,1,,,,,,,,*74
$GPRMC,150203.401,A,4728.4383,N,1902.7694,E,00.09,106.44,010517,,*0C
$GPGGA,150203.401,4728.4383,N,1902.7694,E,1,,,,,,,,*71
$GPRMC,150203.470,A,4728.4383,N,1902.7694,E,00.06,106.44,010517,,*05
$GPGGA,150203.470,4728.4383,N,1902.7694,E,1,,,,,,,,*77
$GPRMC,150203.541,A,4728.4383,N,1902.7694,E,00.01,106.44,010517,,*01
$GPGGA,150203.541,4728.4383,N,1902.7694,E,1,,,,,,,,*74
$GPRMC,150203.613,A,4728.4383,N,1902.7694,E,00.00,106.44,010517,,*04
$GPGGA,150203.613,4728.4383,N,1902.7694,E,1,,,,,,,,*70
$GPRMC,150203.729,A,4728.4383,N,1902.7694,E,00.00,106.44,010517,,*0C
$GPGGA,150203.729,4728.4383,N,1902.7694,E,1,,,,,,,,*78
$GPRMC,150203.799,A,4728.4383,N,1902.7694,E,00.00,106.44,010517,,*07
$GPGGA,150203.799,4728.4383,N,1902.7694,E,1,,,,,,,,*73
$GPRMC,150203.870,A,4728.4383,N,1902.7694,E,00.00,106.44,010517,,*0F
$GPGGA,150203.870,4728.4383,N,1902.7694,E,1,,,,,,,,*7B
